HeritageItemID,SchoolName_x,HeritageTypeName,HeritageGroupName,EndorsedSignificance,ListingNumber,AreaHectares,AboriginalAreaName,Suburb,Address,LocalGovtAreaName,StreetNumber,StreetName,MatchName,ItemName,School_code,AgeID,SchoolName_y,Street,Town_suburb,Postcode,Latitude,Longitude
5063842,Albury Public School - Building B00B,Built,,1,5,2.67269,Wiradjuri,Albury,481 David Street Albury 2640,Albury City,481,David Street,albury public school,Building B00B,1017.0,50441.0,albury public school,481 David St,Albury ,2640.0,-36.082454,146.919253
5063843,Albury Public School - Buildings B00G and B00J,Built,,1,5,2.67269,Wiradjuri,Albury,481 David Street Albury 2640,Albury City,481,David Street,albury public school,Buildings B00G and B00J,1017.0,50441.0,albury public school,481 David St,Albury ,2640.0,-36.082454,146.919253
5063845,"Albury High School - Buildings B00A, B00G and B00L, Period Fencing and Significant Trees",Built,,1,5,1.649,Wiradjuri,Albury,625 Kiewa Street Albury 2640,Albury City,625,Kiewa Street,albury high school,"Buildings B00A, B00G and B00L, Period Fencing and Significant Trees",8101.0,50438.0,albury high school,Kiewa St,Albury ,2640.0,-36.072846,146.915442
5063846,Albury High School - Building B00L,Built,,1,5,2.35,Wiradjuri,Albury,625 Kiewa Street Albury 2640,Albury City,625,Kiewa Street,albury high school,Building B00L,8101.0,50438.0,albury high school,Kiewa St,Albury ,2640.0,-36.072846,146.915442
5063848,Albury Public School - Building B00H,Built,,1,5,2.67269,Wiradjuri,Albury,481 David Street Albury 2640,Albury City,481,David Street,albury public school,Building B00H,1017.0,50441.0,albury public school,481 David St,Albury ,2640.0,-36.082454,146.919253
5063849,Lavington Public School - Memorial Gates,Built,,1,5,2.6304,Wiradjuri,Lavington,494 Urana Road and 497 Hague Street Lavington 2641,Albury City,,494 Urana Road and 497 Hague Street,lavington public school,Memorial Gates,2378.0,50448.0,lavington public school,497 Hague St,Lavington ,2641.0,-36.037411,146.928265
5063998,Albury High School,Complex / Group,Education,1,6,3.999,Wiradjuri,Albury,625 Kiewa Street Albury 2640,Albury City,625,Kiewa Street,albury high school,,8101.0,50438.0,albury high school,Kiewa St,Albury ,2640.0,-36.072846,146.915442
5063850,Armidale High School - Building B00B and Grounds,Built,,1,5,18.2531,Anaiwan,Armidale,158-182 Butler Street Armidale 2350,Armidale Dumaresq,158-182,Butler Street,armidale high school,Building B00B and Grounds,,,,,,,,
5063851,Armidale City Public School - Grounds,Landscape,,1,5,2.97331,Anaiwan,Armidale,142-152 Faulkner Street Armidale 2350,Armidale Dumaresq,142-152,Faulkner Street,armidale city public school,Grounds,1057.0,49372.0,armidale city public school,Faulkner St,Armidale ,2350.0,-30.519501,151.664056
5063852,Drummond Memorial Public School - Grounds and Significant Trees,Landscape,,1,5,3.18364,Anaiwan,Armidale,250 Rusden Street Armidale 2350,Armidale Dumaresq,250,Rusden Street,drummond memorial public school,Grounds and Significant Trees,1058.0,49376.0,drummond memorial public school,250 Rusden Street,ARMIDALE,2350.0,-30.511469,151.650715
5063853,Armidale City Public School - Site of Police Residential Complex,Archaeological-Terrestrial,,1,5,0.8751,Anaiwan,Armidale,142-152 Faulkner Street Armidale 2350,Armidale Dumaresq,142-152,Faulkner Street,armidale city public school,Site of Police Residential Complex,1057.0,49372.0,armidale city public school,Faulkner St,Armidale ,2350.0,-30.519501,151.664056
5063854,Armidale City Public School - Site of National School and Superior Public School,Archaeological-Terrestrial,,1,5,1.1939,Anaiwan,Armidale,142-152 Faulkner Street Armidale 2350,Armidale Dumaresq,142-152,Faulkner Street,armidale city public school,Site of National School and Superior Public School,1057.0,49372.0,armidale city public school,Faulkner St,Armidale ,2350.0,-30.519501,151.664056
5063855,Armidale City Public School - Site of Old Burial Ground,Archaeological-Terrestrial,,1,5,0.26941,Anaiwan,Armidale,142-152 Faulkner Street Armidale 2350,Armidale Dumaresq,142-152,Faulkner Street,armidale city public school,Site of Old Burial Ground,1057.0,49372.0,armidale city public school,Faulkner St,Armidale ,2350.0,-30.519501,151.664056
5063999,Armidale City Public School,Complex / Group,Education,1,6,2.97331,Anaiwan,Armidale,142-152 Faulkner Street Armidale 2350,Armidale Dumaresq,142-152,Faulkner Street,armidale city public school,,1057.0,49372.0,armidale city public school,Faulkner St,Armidale ,2350.0,-30.519501,151.664056
5063856,Canterbury Boys High School - Building  B00A,Built,,1,5,2.723,Eora,Ashbury,220-252 Holden Street Ashbury 2193,Ashfield,220-252,Holden Street,canterbury boys high school,Building  B00A,8107.0,46392.0,canterbury boys high school,Holden St,Canterbury ,2193.0,-33.904178,151.123884
5063857,Summer Hill Public School - Buildings B00B and B00C,Built,,1,5,0.85802,Eora,Summer Hill,20-26 Junction Road Summer Hill 2130,Ashfield,20-26,Junction Road,summer hill public school,Buildings B00B and B00C,3129.0,44414.0,summer hill public school,Moonbie St,Summer Hill ,2130.0,-33.895815,151.135853
5063858,Dobroyd Point Public School,Complex / Group,Education,1,6,1.0232,Eora,Haberfield,87 Waratah Street Haberfield 2045,Ashfield,87,Waratah Street,dobroyd point public school,,3873.0,47598.0,dobroyd point public school,89 Waratah Street,Haberfield,2045.0,-33.874416,151.140692
5063861,Haberfield Public School,Complex / Group,Education,1,6,1.683,Eora,Haberfield,149A Bland Street Haberfield 2045,Ashfield,149A,Bland Street,haberfield public school,,2117.0,45499.0,haberfield public school,Denman Ave,Haberfield ,2045.0,-33.879467,151.134002
5063879,"Auburn Public School - Buildings B00A-B00C, B00F, B00H, B00J, B00K and B00O and Significant Tree",Built,,1,5,2.25143,Eora,Auburn,72 and 131 Auburn Road Auburn 2144,Auburn,72 and 131,Auburn Road,auburn public school,"Buildings B00A-B00C, B00F, B00H, B00J, B00K and B00O and Significant Tree",7403.0,47800.0,auburn public school,Auburn Rd & Beatrice St,Auburn,2144.0,-33.854,151.032953
5063894,"Auburn North Public School - Buildings B00F, B00G and B00I and Significant Trees",Built,,1,5,3.24822,Eora,Auburn,153-159 Parramatta Road Auburn 2144,Auburn,153-159,Parramatta Road,auburn north public school,"Buildings B00F, B00G and B00I and Significant Trees",1073.0,47799.0,auburn north public school,100 Adderley St,Auburn ,2144.0,-33.841669,151.038618
5063899,"Berala Public School - Building B00A, B00C and B00G",Built,,1,5,2.42176,Eora,Berala,216 Harrow Road Berala 2141,Auburn,216,Harrow Road,berala public school,"Building B00A, B00C and B00G",1199.0,45498.0,berala public school,Harrow Rd,Berala,2141.0,-33.869714,151.028244
5063914,"Lidcombe Public School - Buildings B00A, B00B, B00D, B00G, B00H and B00I",Built,,1,5,2.436,Eora,Lidcombe,1 Mills Street Lidcombe 2141,Auburn,1,Mills Street,lidcombe public school,"Buildings B00A, B00B, B00D, B00G, B00H and B00I",2394.0,47790.0,lidcombe public school,Mills Street,Lidcombe ,2141.0,-33.861019,151.046926
5063929,Ballina Public School - Building B00C,Built,,1,5,0.2175,Bundjalung,Ballina,30-52 Crane Street Ballina 2478,Ballina,30-52,Crane Street,ballina public school,Building B00C,1112.0,49765.0,ballina public school,48 Crane St,Ballina ,2478.0,-28.869724,153.563707
5063930,Ballina Public School - Building B00D,Built,,1,5,0.435,Bundjalung,Ballina,30-52 Crane Street Ballina 2478,Ballina,30-52,Crane Street,ballina public school,Building B00D,1112.0,49765.0,ballina public school,48 Crane St,Ballina ,2478.0,-28.869724,153.563707
5063932,Ballina Coast High School - Building B00C,Built,,1,5,2.145,Bundjalung,Ballina,37-49 Swift Street Ballina 2478,Ballina,37-49,Swift Street,ballina coast high school,Building B00C,8195.0,49764.0,ballina coast high school,57 Cherry Street,BALLINA,2478.0,-28.866603,153.565058
5063938,Cabbage Tree Island Public School - Curtilage,Landscape,,1,5,0.8094,Bundjalung,Cabbage Tree Island,Cabbage Tree Island 2477,Ballina,,,cabbage tree island public school,Curtilage,1471.0,49762.0,cabbage tree island public school,50 Bath St,Wardell,2477.0,-28.947741,153.458499
5063944,Fernleigh Public School - Building B00A,Built,,1,5,0.8094,Bundjalung,Fernleigh,451 Fernleigh Road Fernleigh 2479,Ballina,451,Fernleigh Road,fernleigh public school,Building B00A,2214.0,49772.0,fernleigh public school,451 Fernleigh Rd,Fernleigh ,2479.0,-28.76765,153.498399
5063945,Rous Public School - Building B00A,Built,,1,5,0.8094,Bundjalung,Rous,248 Rous Road Rous 2477,Ballina,248,Rous Road,rous public school,Building B00A,3006.0,49763.0,rous public school,Rous Mill Rd,Alstonville ,2477.0,-28.870683,153.406624
5063946,Bankstown Public School - Buildings B001-B005,Built,,1,5,1.619,Eora,Bankstown,Restwell Street Bankstown 2200,Bankstown,,Restwell Street,bankstown public school,Buildings B001-B005,7405.0,48575.0,bankstown public school,61 Restwell St,Bankstown ,2200.0,-33.921122,151.034168
5063947,Bankstown West Public School - Buildings B00A-B00C and B00E,Built,,1,5,1.741,Eora,Bankstown,141 William Street Bankstown 2200,Bankstown,141,William Street,bankstown west public school,Buildings B00A-B00C and B00E,4142.0,48578.0,bankstown west public school,William St,Bankstown,2200.0,-33.915528,151.019639
5063948,"Greenacre Public School - Buildings B00A, B00B and B00E",Built,,1,5,1.76333,Eora,Greenacre,105 Waterloo Road Greenacre 2190,Bankstown,105,Waterloo Road,greenacre public school,"Buildings B00A, B00B and B00E",1123.0,48557.0,greenacre public school,89-105 Waterloo Rd Greenacre NSW 2190,,2190.0,-33.911161,151.057581
5063949,Karningul School - Building B00A,Built,,1,5,1.284471,Eora,Regents Park,2A Bagdad Street Regents Park 2143,Bankstown,2A,Bagdad Street,karningul school,Building B00A,5581.0,57886.0,karningul school,1A Auburn Rd,Regents Park ,2143.0,-33.88501,151.023804
5063950,Revesby Public School - Building B00E,Built,,1,5,1.49682,Eora,Revesby,84 The River Road Revesby 2212,Bankstown,84,The River Road,revesby public school,Building B00E,2958.0,48613.0,revesby public school,Victoria St,Revesby ,2212.0,-33.944449,151.017145
5066989,Bankstown North Public School - Building B00A,Built,,0,6,,Eora,Bankstown,322 Hume Highway Bankstown 2200,Bankstown,322,Hume Highway,bankstown north public school,Building B00A,1124.0,48574.0,bankstown north public school,322 Hume Hwy,Bankstown ,2200.0,-33.904888,151.038043
5063952,Bathurst Public School - Buildings B00D-B00F,Built,,1,5,3.989,Wiradjuri,Bathurst,281 George Street Bathurst 2795,Bathurst Regional,281,George Street,bathurst public school,Buildings B00D-B00F,1150.0,50975.0,bathurst public school,George St,Bathurst ,2795.0,-33.420942,149.570615
5063957,Denison College of Secondary Education - Building B00H,Built,,1,5,2.023,Wiradjuri,Bathurst,190 Hope Street Bathurst 2795,Bathurst Regional,190,Hope Street,denison college of secondary education,Building B00H,,,,,,,,
5063959,O'Connell Public School - Building B00A,Built,,1,5,0.8094,Wiradjuri,O'Connell,15 Black Mills Lane O'Connell 2795,Bathurst Regional,15,Black Mills Lane,o'connell public school,Building B00A,2798.0,50984.0,o'connell public school,15 Black's Mill Lane,O'Connell ,2795.0,-33.524513,149.720076
5063961,Perthville Public School - Buildings B00A and B00C,Built,,1,5,0.2023,Wiradjuri,Perthville,Prince Street Perthville 2795,Bathurst Regional,,Prince Street,perthville public school,Buildings B00A and B00C,2862.0,50985.0,perthville public school,26 Rockley Street,PERTHVILLE,2795.0,-33.491052,149.550052
5063962,Bathurst Public School,Complex / Group,Education,1,6,3.989,Wiradjuri,Bathurst,281 George Street Bathurst 2795,Bathurst Regional,281,George Street,bathurst public school,,1150.0,50975.0,bathurst public school,George St,Bathurst ,2795.0,-33.420942,149.570615
5064000,Denison College of Secondary Education,Complex / Group,Education,1,6,4.046,Wiradjuri,Bathurst,190 Hope Street Bathurst 2795,Bathurst Regional,190,Hope Street,denison college of secondary education,,,,,,,,,
5064001,Hill End Public School,Complex / Group,Education,1,6,0.83657,Wiradjuri,Hill End,19 Tambaroora Street Hill End 2850,Bathurst Regional,19,Tambaroora Street,hill end public school,,2161.0,51075.0,hill end public school,Tambaroora St,Hill End ,2850.0,-33.034573,149.415886
5064003,Perthville Public School,Complex / Group,Education,1,6,1.31092,Wiradjuri,Perthville,Prince Street Perthville 2795,Bathurst Regional,,Prince Street,perthville public school,,2862.0,50985.0,perthville public school,26 Rockley Street,PERTHVILLE,2795.0,-33.491052,149.550052
5064004,Rockley Public School,Complex / Group,Education,1,6,0.8092,Wiradjuri,Rockley,30 Hill Street Rockley 2795,Bathurst Regional,30,Hill Street,rockley public school,,2974.0,50987.0,rockley public school,Hill St,Rockley ,2795.0,-33.69193,149.562554
5064005,Sofala Public School,Complex / Group,Education,1,6,0.645,Wiradjuri,Sofala,Turon Terrace Sofala 2795,Bathurst Regional,,Turon Terrace,sofala public school,,3077.0,50988.0,sofala public school,Turon Terrace,Sofala ,2795.0,-33.082242,149.695172
5064006,Wattle Flat Public School,Complex / Group,Education,1,6,0.6071,Wiradjuri,Wattle Flat,3807 Sofala Road Wattle Flat 2795,Bathurst Regional,3807,Sofala Road,wattle flat public school,,3402.0,50991.0,wattle flat public school,Mudgee-Bathurst Rd,Wattle Flat ,2795.0,-33.141545,149.692677
5064007,Bathurst West Public School,Complex / Group,Education,1,6,0.0335,Wiradjuri,Bathurst,35 Suttor Road Bathurst 2795,Bathurst Regional,35,Suttor Road,bathurst west public school,,3824.0,50977.0,bathurst west public school,Suttor St,Bathurst ,2795.0,-33.411002,149.559746
5066084,Kelso Public School,Complex / Group,Education,1,6,0.0973,Wiradjuri,Kelso,21 Gilmour Street Kelso 2795,Bathurst Regional,21,Gilmour Street,kelso public school,,2275.0,50980.0,kelso public school,19 Gilmour Street,Kelso ,2795.0,-33.416969,149.605156
5064011,Bega Valley Public School - former CBC Bank,Built,,3,5,0.1015,Dhurga,Bega,21 Auckland Street Bega 2550,Bega Valley,21,Auckland Street,bega valley public school,former CBC Bank,1168.0,69739.0,bega valley public school,27 Auckland St,Bega ,2550.0,-36.670545,149.839095
5064012,"Bega Valley Public School - Buildings B00A, B00C and B00D",Built,,1,5,0.8094,Dhurga,Bega,21 Auckland Street Bega 2550,Bega Valley,21,Auckland Street,bega valley public school,"Buildings B00A, B00C and B00D",1168.0,69739.0,bega valley public school,27 Auckland St,Bega ,2550.0,-36.670545,149.839095
5064013,Bega High School - Memorial Garden,Landscape,,1,5,0.8094,Dhurga,Bega,96-106 Upper Street Bega 2550,Bega Valley,96-106,Upper Street,bega high school,Memorial Garden,8165.0,50182.0,bega high school,Upper & Eden Sts,Bega ,2550.0,-36.678459,149.838766
5064014,Bemboka Public School - Building B00A,Built,,1,5,1.2595,Ngarigu,Bemboka,43-45 Nimmitabel Street Bemboka 2550,Bega Valley,43-45,Nimmitabel Street,bemboka public school,Building B00A,1189.0,50185.0,bemboka public school,Kameruka St,Bemboka ,2550.0,-36.631309,149.571075
5064019,Bermagui Public School - Building B00E and Significant Trees,Built,,1,5,0.3036,Dhurga,Bermagui,2-4 George Street Bermagui 2546,Bega Valley,2-Apr,George Street,bermagui public school,Building B00E and Significant Trees,1204.0,50178.0,bermagui public school,George St,Bermagui ,2546.0,-36.420776,150.063625
5064021,Cobargo Public School - Buildings B00B and B00C,Built,,1,5,2.2081,Dhurga,Cobargo,20-40 Wandellow Road Cobargo 2550,Bega Valley,20-40,Wandellow Road,cobargo public school,Buildings B00B and B00C,1579.0,50179.0,cobargo public school,Wandella Rd,Cobargo,2550.0,-36.386942,149.882818
5064022,Eden Public School - Building B00F,Built,,1,5,0.2023,Dhurga,Eden,124 Imlay Street Eden 2551,Bega Valley,124,Imlay Street,eden public school,Building B00F,1816.0,50194.0,eden public school,124 Imlay St,Eden ,2551.0,-37.063271,149.906688
5064024,Quaama Public School - Buildings B00A and B00D,Built,,1,5,0.8091,Dhurga,Quaama,48 Cobargo Street Quaama 2550,Bega Valley,48,Cobargo Street,quaama public school,Buildings B00A and B00D,2917.0,50187.0,quaama public school,48 Cobargo St,Quaama ,2550.0,-36.464226,149.86705
5064025,Tanja Public School - Buildings B00A and B00C,Built,,1,5,0.8094,Dhurga,Tanja,7 Barrabooka Road Tanja 2550,Bega Valley,7,Barrabooka Road,tanja public school,Buildings B00A and B00C,3159.0,50188.0,tanja public school,Barrabooka Rd,Tanja ,2550.0,-36.64029,149.975072
5064026,Towamba Public School - Buildings B00A and B00E,Built,,1,5,0.8094,Birdawal,Towamba,9 Towamba Street Towamba 2550,Bega Valley,9,Towamba Street,towamba public school,Buildings B00A and B00E,3252.0,50190.0,towamba public school,Towamba St,Towamba ,2550.0,-37.084209,149.695158
5064027,Wyndham Public School - Buildings B00A and B00F,Built,,1,5,0.8092,Birdawal,Wyndham,31-37 Wyndham Road Wyndham 2550,Bega Valley,31-37,Wyndham Road,wyndham public school,Buildings B00A and B00F,3525.0,50192.0,wyndham public school,Monaro St,Wyndham ,2550.0,-36.92962,149.64656
5064029,Wyndham Public School,Complex / Group,Education,1,6,0.8092,Birdawal,Wyndham,31-37 Monaro Street Wyndham 2550,Bega Valley,31-37,Monaro Street,wyndham public school,,3525.0,50192.0,wyndham public school,Monaro St,Wyndham ,2550.0,-36.92962,149.64656
5064030,Bellingen High School - Landscape,Landscape,,1,5,5.155,Gumbainggar,Bellingen,1125 Waterfall Way Bellingen 2454,Bellingen,1125,Waterfall Way,bellingen high school,Landscape,8258.0,46362.0,bellingen high school,1125 Waterfall Way,Bellingen ,2454.0,-30.455123,152.908442
5064031,Bellingen Public School - Landscape,Landscape,,1,5,3.33,Gumbainggar,Bellingen,32A William Street Bellingen 2454,Bellingen,32A,William Street,bellingen public school,Landscape,1181.0,49676.0,bellingen public school,William St,Bellingen ,2454.0,-30.45349,152.891887
5064035,Cascade Environmental Education Centre - Landscape,Landscape,,1,5,0.6096,Gumbainggar,Cascade,700 Briggsvale Road Cascade 2453,Bellingen,700,Briggsvale Road,cascade environmental education centre,Landscape,5731.0,64080.0,cascade environmental education centre,Coramba Rd,Cascade,2453.0,-30.233457,152.789665
5064037,Dorrigo Public  School - Landscape,Landscape,,1,5,1.7629,Gumbainggar,Dorrigo,2 Hickory Street Dorrigo 2453,Bellingen,2,Hickory Street,dorrigo public  school,Landscape,,,,,,,,
5064038,Dorrigo High School - Landscape,Landscape,,1,5,5.511,Gumbainggar,Dorrigo,4183 Waterfall Way Dorrigo 2453,Bellingen,4183,Waterfall Way,dorrigo high school,Landscape,8453.0,49671.0,dorrigo high school,Waterfall Way,Dorrigo ,2453.0,-30.339222,152.705492
5064039,Raleigh Public School - Landscape,Landscape,,1,5,1.012,Gumbainggar,Raleigh,12 North Street Raleigh 2454,Bellingen,12,North Street,raleigh public school,Landscape,2931.0,49677.0,raleigh public school,12 NORTH STREET,RALEIGH,2454.0,-30.450064,153.012586
5064040,Repton Public School - Landscape,Landscape,,1,5,0.89614,Gumbainggar,Repton,1-11 River Street Repton 2454,Bellingen,1-Nov,River Street,repton public school,Landscape,2955.0,49678.0,repton public school,River Street,REPTON,2454.0,-30.446021,153.029037
5064041,Urunga Public School - Landscape,Landscape,,1,5,1.1804,Gumbainggar,Urunga,1-3 Bonville Street Urunga 2455,Bellingen,1-Mar,Bonville Street,urunga public school,Landscape,3318.0,57496.0,urunga public school,Bonville St,Urunga,2455.0,-30.495206,153.020428
5064043,Tocumwal Public School - Building B00A,Built,,1,5,0.8094,Yota-Yota,Tocumwal,17-33 Hennessy Street Tocumwal 2714,Berrigan,17-33,Hennessy Street,tocumwal public school,Building B00A,3225.0,50640.0,tocumwal public school,18-20 Morris St,Tocumwal,2714.0,-35.813862,145.56885
5064044,Marsden Park Public School - Building B00G,Built,,1,5,0.4047,Dharug,Marsden Park,363 Garfield Road West Marsden Park 2765,Blacktown,363,Garfield Road West,marsden park public school,Building B00G,2489.0,50784.0,marsden park public school,363 Garfield Road West,MARSDEN PARK,2765.0,-33.696425,150.833642
5064045,Colyton Public School - Building B00K,Built,,1,5,3.232,Dharug,Mount Druitt,59 Nelson Street Mount Druitt 2770,Blacktown,59,Nelson Street,colyton public school,Building B00K,1596.0,50796.0,colyton public school,Nelson St,Mount Druitt ,2770.0,-33.777199,150.81316
5064046,Colyton Public School - Building B00I,Built,,1,5,3.232,Dharug,Mount Druitt,59 Nelson Street Mount Druitt 2770,Blacktown,59,Nelson Street,colyton public school,Building B00I,1596.0,50796.0,colyton public school,Nelson St,Mount Druitt ,2770.0,-33.777199,150.81316
5064047,Plumpton House School - Building B00A,Built,,1,5,,Dharug,Plumpton,327 Rooty Hill Road Plumpton 2761,Blacktown,327,Rooty Hill Road,plumpton house school,Building B00A,5754.0,50779.0,plumpton house school,327 Rooty Hill Road North,Plumpton ,2761.0,-33.75029,150.840732
5064048,Casuarina School - Building B00A,Built,,1,5,,Dharug,Riverstone,100 Garfield Road Riverstone 2765,Blacktown,100,Garfield Road,casuarina school,Building B00A,5574.0,57880.0,casuarina school,Garfield Rd E & Piccadilly St,Riverstone,2765.0,-33.677516,150.866346
5064049,Riverstone High School - Building B00M,Built,,1,5,9.594,Dharug,Riverstone,71 McCulloch Street Riverstone 2765,Blacktown,71,McCulloch Street,riverstone high school,Building B00M,8907.0,6398.0,riverstone high school,71 McCulloch Street,RIVERSTONE,2765.0,-33.678883,150.875744
5064051,The Meadows Public School - Building B00F,Built,,1,5,0.0803,Dharug,Seven Hills,2C Fuller Street Seven Hills 2147,Blacktown,2C,Fuller Street,the meadows public school,Building B00F,2510.0,47825.0,the meadows public school,Fuller St,Seven Hills ,2147.0,-33.781365,150.942567
5064052,Seven Hills North Public School - Buildings B00C and B0D,Built,,1,5,0.7705,Dharug,Seven Hills,45 Beethoven Street Seven Hills 2147,Blacktown,45,Beethoven Street,seven hills north public school,Buildings B00C and B0D,3053.0,47822.0,seven hills north public school,45 Beethoven St,Seven Hills ,2147.0,-33.759976,150.955041
5064053,Blayney Public School - Building B00A and Significant Trees,Built,,1,5,1.9883,Wiradjuri,Blayney,2 Lindsay Street Blayney 2799,Blayney,2,Lindsay Street,blayney public school,Building B00A and Significant Trees,1260.0,50999.0,blayney public school,Lindsay St,Blayney ,2799.0,-33.528987,149.251583
5064054,Blayney High School - Significant Trees,Landscape,,1,5,6.485,Wiradjuri,Blayney,1 Water Street Blayney 2799,Blayney,1,Water Street,blayney high school,Significant Trees,8357.0,50998.0,blayney high school,Water St,Blayney ,2799.0,-33.531048,149.251081
5064055,Carcoar Public School - Building B00A and B00C and Significant Trees,Built,,1,5,0.7663,Wiradjuri,Carcoar,13 Icely Street Carcoar 2791,Blayney,13,Icely Street,carcoar public school,Building B00A and B00C and Significant Trees,1504.0,50966.0,carcoar public school,Icely St,Carcoar ,2791.0,-33.612326,149.142432
5064056,Lyndhurst Public School - Buildings B00A and B00B and Significant Trees,Built,,1,5,2.0134,Wiradjuri,Lyndhurst,8 Russart Street Lyndhurst 2797,Blayney,8,Russart Street,lyndhurst public school,Buildings B00A and B00B and Significant Trees,2436.0,50993.0,lyndhurst public school,Marsden St,Lyndhurst ,2797.0,-33.673266,149.044914
5064057,Millthorpe Public School - Buildings B00B-B00D and Significant Trees,Built,,1,5,0.90462,Wiradjuri,Millthorpe,32 Park Street Millthorpe 2798,Blayney,32,Park Street,millthorpe public school,Buildings B00B-B00D and Significant Trees,2558.0,50995.0,millthorpe public school,Park St,Millthorpe ,2798.0,-33.445146,149.185939
5064058,Millthorpe Public School - Effluent Disposal Area,Landscape,,1,5,1.333,Wiradjuri,Millthorpe,54 Park Street Millthorpe 2798,Blayney,54,Park Street,millthorpe public school,Effluent Disposal Area,2558.0,50995.0,millthorpe public school,Park St,Millthorpe ,2798.0,-33.445146,149.185939
5064059,Neville Public School - Building B00A,Built,,1,5,0.8094,Wiradjuri,Neville,8 Crouch Street Neville 2799,Blayney,8,Crouch Street,neville public school,Building B00A,2732.0,51000.0,neville public school,Crouch St,Neville ,2799.0,-33.708658,149.216784
5064060,Blayney Public School,Complex / Group,Education,1,6,1.9883,Wiradjuri,Blayney,2 Lindsay Street Blayney 2799,Blayney,2,Lindsay Street,blayney public school,,1260.0,50999.0,blayney public school,Lindsay St,Blayney ,2799.0,-33.528987,149.251583
5064061,Blayney High School,Complex / Group,Education,1,6,6.485,Wiradjuri,Blayney,1 Water Street Blayney 2799,Blayney,1,Water Street,blayney high school,,8357.0,50998.0,blayney high school,Water St,Blayney ,2799.0,-33.531048,149.251081
5064062,Carcoar Public School,Complex / Group,Education,1,6,0.7663,Wiradjuri,Carcoar,13 Icely Street Carcoar 2791,Blayney,13,Icely Street,carcoar public school,,1504.0,50966.0,carcoar public school,Icely St,Carcoar ,2791.0,-33.612326,149.142432
5064063,Millthorpe Public School,Complex / Group,Education,1,6,1.19842,Wiradjuri,Millthorpe,32 Park Street Millthorpe 2798,Blayney,32,Park Street,millthorpe public school,,2558.0,50995.0,millthorpe public school,Park St,Millthorpe ,2798.0,-33.445146,149.185939
5064064,Blackheath Public School - Building B00B,Built,,1,5,1.2041,Dharug,Blackheath,201 Great Western Highway Blackheath 2785,Blue Mountains ,201,Great Western Highway,blackheath public school,Building B00B,1246.0,50873.0,blackheath public school,Leichhardt St,Blackheath ,2785.0,-33.639284,150.285831
5064065,Blackheath Public School - Blackheath Stockade site,Archaeological-Terrestrial,,1,5,1.2041,Dharug,Blackheath,201 Great Western Highway Blackheath 2785,Blue Mountains ,201,Great Western Highway,blackheath public school,Blackheath Stockade site,1246.0,50873.0,blackheath public school,Leichhardt St,Blackheath ,2785.0,-33.639284,150.285831
5064066,Blackheath Public School - Building B00E,Built,,1,5,0.4047,Dharug,Blackheath,207 Great Western Highway Blackheath 2785,Blue Mountains ,207,Great Western Highway,blackheath public school,Building B00E,1246.0,50873.0,blackheath public school,Leichhardt St,Blackheath ,2785.0,-33.639284,150.285831
5064067,The Warruwii Centre - Building B00A,Built,,1,5,0.7208,Dharug,Glenbrook,10 Park Street Glenbrook 2773,Blue Mountains ,10,Park Street,the warruwii centre,Building B00A,,,,,,,,
5064069,Lawson Public School - Former Blue Mountains Inn site,Archaeological-Terrestrial,,1,5,1.64187,Dharug,Lawson,2-12 Wilson Street Lawson 2783,Blue Mountains ,2-Dec,Wilson Street,lawson public school,Former Blue Mountains Inn site,2381.0,50871.0,lawson public school,Adelaide Street,Lawson,2783.0,-33.721217,150.428243
5064070,Mount Victoria Public School - Building B00C,Built,,1,5,1.4164,Dharug,Mount Victoria,105-107 Great Western Highway Mount Victoria 2786,Blue Mountains ,105-107,Great Western Highway,mount victoria public school,Building B00C,2652.0,50881.0,mount victoria public school,Great Western Hwy,Mount Victoria ,2786.0,-33.591334,150.253883
5064071,Wentworth Falls Public School - Buildings B00F and B00G,Built,,1,5,2.4281,Dharug,Wentworth Falls,52-58 Falls Road Wentworth Falls 2782,Blue Mountains ,52-58,Falls Road,wentworth falls public school,Buildings B00F and B00G,3422.0,50869.0,wentworth falls public school,Falls Rd,Wentworth Falls ,2782.0,-33.714112,150.373525
5064072,Mount Victoria Public School,Complex / Group,Education,1,6,1.4164,Dharug,Mount Victoria,105-107 Great Western Highway Mount Victoria 2786,Blue Mountains ,105-107,Great Western Highway,mount victoria public school,,2652.0,50881.0,mount victoria public school,Great Western Hwy,Mount Victoria ,2786.0,-33.591334,150.253883
5064182,Mount Wilson Adult Education Centre - Buildings B00A and B00B,Built,,1,5,3.2504,Dharug,Mount Wilson,51 Wilson Street Mount Wilson 2786,Blue Mountains ,51,Wilson Street,mount wilson adult education centre,Buildings B00A and B00B,,,,,,,,
5064073,"Banksmeadow Public School - Building B00A, B00B and B00S",Built,,1,5,0.8585,Eora,Botany,60 Brighton Street Botany 2019,Botany Bay,60,Brighton Street,banksmeadow public school,"Building B00A, B00B and B00S",1121.0,46390.0,banksmeadow public school,Trevelyan & Wiggins Sts,Botany ,2019.0,-33.953739,151.20661
5064074,"Botany Public School - Buildings B00A, B00B and B00C",Built,,1,5,2.1086,Eora,Botany,1076 Botany Road Botany 2019,Botany Bay,1076,Botany Road,botany public school,"Buildings B00A, B00B and B00C",1323.0,46494.0,botany public school,1076 Botany Rd,Botany ,2019.0,-33.94316,151.194687
5064076,John Brotchie Nursery School - Building B00A,Built,,1,5,,Eora,Botany,1361 Botany Road Botany 2019,Botany Bay,1361,Botany Road,john brotchie nursery school,Building B00A,5423.0,,john brotchie nursery school,1361 Botany Rd,Botany ,2019.0,-33.942627,151.196138
5064078,Daceyville Public School - Buildings B00A-B00C and B00E,Built,,1,5,2.881,Eora,Daceyville,Joffre Crescent Daceyville 2032,Botany Bay,,Joffre Crescent,daceyville public school,Buildings B00A-B00C and B00E,7413.0,45322.0,daceyville public school,Joffre Cres,Daceyville ,2032.0,-33.929548,151.227984
5064081,Matraville Public School - Building B00B,Built,,1,5,1.8034,Eora,Hillsdale,Bunnerong Road Hillsdale 2036,Botany Bay,,Bunnerong Road,matraville public school,Building B00B,2502.0,47569.0,matraville public school,310 BUNNERONG ROAD,MATRAVILLE,2036.0,-33.955064,151.229111
5064082,Mascot Public School - Building B00A and B00B,Built,,1,5,3.704,Eora,Mascot,King Street Mascot 2020,Botany Bay,,King Street,mascot public school,Building B00A and B00B,2499.0,44920.0,mascot public school,King St,Mascot ,2020.0,-33.928577,151.192485
5064123,Daceyville Public School,Complex / Group,Education,1,6,2.881,Eora,Daceyville,Joffre Crescent Daceyville 2032,Botany Bay,,Joffre Crescent,daceyville public school,,7413.0,45322.0,daceyville public school,Joffre Cres,Daceyville ,2032.0,-33.929548,151.227984
5064124,Botany Public School,Complex / Group,Education,1,6,2.1086,Eora,Botany,1076 Botany Road Botany 2019,Botany Bay,1076,Botany Road,botany public school,,1323.0,46494.0,botany public school,1076 Botany Rd,Botany ,2019.0,-33.94316,151.194687
5064125,John Brotchie Nursery School,Complex / Group,Education,1,6,,Eora,Botany,1361 Botany Road Botany 2019,Botany Bay,1361,Botany Road,john brotchie nursery school,,5423.0,,john brotchie nursery school,1361 Botany Rd,Botany ,2019.0,-33.942627,151.196138
5064085,"Broken Hill North Public School - Buildings B00A-B00C, B00E and B00F",Built,,1,5,3.0804,Wilyagali,Broken Hill,619 Chapple Street Broken Hill 2880,Broken Hill,619,Chapple Street,broken hill north public school,"Buildings B00A-B00C, B00E and B00F",1371.0,51110.0,broken hill north public school,Chapple St,Broken Hill ,2880.0,-31.944457,141.471518
5064086,"Broken Hill High School - Buildings B00A, B00E, B00T and B00T1",Built,,1,5,4.6998,Wilyagali,Broken Hill,76 Garnet Street Broken Hill 2880,Broken Hill,76,Garnet Street,broken hill high school,"Buildings B00A, B00E, B00T and B00T1",8105.0,46480.0,broken hill high school,76 Garnet St,Broken Hill,2880.0,-31.960105,141.456986
5064087,School of the Air - Building B00A,Built,,1,5,0.26047,Wilyagali,Broken Hill,586 Lane Street Broken Hill 2880,Broken Hill,586,Lane Street,school of the air,Building B00A,5302.0,56275.0,school of the air,Lane St,Broken Hill ,2880.0,-31.945382,141.472
5064088,Burke Ward Public School - Buildings B00A-B00D and B00F,Built,,1,5,2.2006,Wilyagali,Broken Hill,185 Ratkow Street Broken Hill 2880,Broken Hill,185,Ratkow Street,burke ward public school,Buildings B00A-B00D and B00F,1432.0,51112.0,burke ward public school,Rakow St,Broken Hill ,2880.0,-31.960361,141.441054
5064089,Alma Public School,Complex / Group,Education,1,6,1.9586,Wilyagali,Broken Hill,29 Comstock Street Broken Hill 2880,Broken Hill,29,Comstock Street,alma public school,,1028.0,51109.0,alma public school,Comstock St,Broken Hill ,2880.0,-31.982217,141.462443
5066455,Broken Hill Public School - Buildings B00A-B00C,Built,,0,6,1.811,Wilyagali,Broken Hill,135 Bromide Street Broken Hill 2880,Broken Hill,135,Bromide Street,broken hill public school,Buildings B00A-B00C,1369.0,51111.0,broken hill public school,Mica St,Broken Hill ,2880.0,-31.956108,141.456502
5064090,Burwood Public School - Building B00B,Built,,1,5,0.6718,Eora,Burwood,1-5 Conder Street Burwood 2134,Burwood,1-May,Conder Street,burwood public school,Building B00B,1455.0,47779.0,burwood public school,1-3 Conder Street,BURWOOD,2134.0,-33.8768,151.098987
5064091,Burwood Public School - Building B00A,Built,,1,5,0.6718,Eora,Burwood,1-5 Conder Street Burwood 2134,Burwood,1-May,Conder Street,burwood public school,Building B00A,1455.0,47779.0,burwood public school,1-3 Conder Street,BURWOOD,2134.0,-33.8768,151.098987
5064092,"Burwood Girls High School - Buildings B00A-B00D, B00K, B00M and B00N",Built,,1,5,1.9643,Eora,Burwood,95 Queen Street Burwood 2134,Burwood,95,Queen Street,burwood girls high school,"Buildings B00A-B00D, B00K, B00M and B00N",8152.0,47776.0,burwood girls high school,95 Queen Street,CROYDON,2132.0,-33.875318,151.113036
5064093,Croydon Public School - Building B00E,Built,,1,5,2.2601,Eora,Croydon,39 Young Street Croydon 2132,Burwood,39,Young Street,croydon public school,Building B00E,7411.0,47777.0,croydon public school,39 Young St,Croydon ,2132.0,-33.879793,151.114887
5064094,Bangalow Public School - Building B00A,Built,,1,5,1.214,Bundjalung,Bangalow,45-71 Byron Street Bangalow 2479,Byron,45-71,Byron Street,bangalow public school,Building B00A,1118.0,49770.0,bangalow public school,Byron St,Bangalow ,2479.0,-28.68554,153.525743
5064095,Brunswick Heads Public School - Building B00F,Built,,1,5,0.8802,Bundjalung,Brunswick Heads,Fingal Street Brunswick Heads 2483,Byron,,Fingal Street,brunswick heads public school,Building B00F,1389.0,49909.0,brunswick heads public school,Fingal St,Brunswick Heads ,2483.0,-28.541343,153.550848
5064096,Byron Bay Public School - Buildings B00A and B00B,Built,,1,5,2.0195,Bundjalung,Byron Bay,17 Kingsley Street Byron Bay 2481,Byron,17,Kingsley Street,byron bay public school,Buildings B00A and B00B,1470.0,49903.0,byron bay public school,17 Kingsley St,Byron Bay ,2481.0,-28.647416,153.614826
5064097,Eureka Public School - Buildings B00A and B00H and Landscape,Built,,1,5,1.32,Bundjalung,Eureka,438 Eureka Road Eureka 2480,Byron,438,Eureka Road,eureka public school,Buildings B00A and B00H and Landscape,1879.0,49798.0,eureka public school,Lismore-Brunswick River Rd,Eureka ,2480.0,-28.687657,153.439223
5064098,Bangalow Public School,Complex / Group,Education,1,6,1.214,Bundjalung,Bangalow,45-71 Byron Street Bangalow 2479,Byron,45-71,Byron Street,bangalow public school,,1118.0,49770.0,bangalow public school,Byron St,Bangalow ,2479.0,-28.68554,153.525743
5064126,Byron Bay Public School,Complex / Group,Education,1,6,2.0195,Bundjalung,Byron Bay,17 Kingsley Street Byron Bay 2481,Byron,17,Kingsley Street,byron bay public school,,1470.0,49903.0,byron bay public school,17 Kingsley St,Byron Bay ,2481.0,-28.647416,153.614826
5064127,Eureka Public School,Complex / Group,Education,1,6,1.32,Bundjalung,Eureka,438 Eureka Road Eureka 2480,Byron,438,Eureka Road,eureka public school,,1879.0,49798.0,eureka public school,Lismore-Brunswick River Rd,Eureka ,2480.0,-28.687657,153.439223
5064128,Borenore Public School - Building B00B,Built,,1,5,0.8827,Wiradjuri,Borenore,1243 The Escort Way Borenore 2800,Cabonne,1243,The Escort Way,borenore public school,Building B00B,3504.0,51002.0,borenore public school,1243 The Escort Way,BORENORE,2800.0,-33.251005,148.984209
5064129,Eugowra Public School - Movable Items,Movable / Collection,,1,5,0.7275,Wiradjuri,Eugowra,3 Hill Street Eugowra 2806,Cabonne,3,Hill Street,eugowra public school,Movable Items,1870.0,51021.0,eugowra public school,Hill St,Eugowra ,2806.0,-33.423082,148.369286
5064130,Camden Public School - Building I and Potential Archaeology,Built,,1,5,3.1033,Dhawa,Camden,25 John Street Camden 2570,Camden,25,John Street,camden public school,Building I and Potential Archaeology,1482.0,50220.0,camden public school,25 JOHN STREET,CAMDEN,2570.0,-34.051998,150.693236
5064131,Camden Park Environmental Education Centre,Landscape,,3,5,,Gandangara,Menangle,60 Woodbridge Road Menangle 2568,Camden,60,Woodbridge Road,camden park environmental education centre,,5429.0,64079.0,camden park environmental education centre,Finns Rd & Remembrance Drive,Menangle ,2568.0,-34.120004,150.709685
5064132,Cobbitty Public School - Buildings B00A and B00E,Built,,1,5,0.8094,Dhawa,Cobbitty,308 Cobbitty Road Cobbitty 2570,Camden,308,Cobbitty Road,cobbitty public school,Buildings B00A and B00E,1580.0,50223.0,cobbitty public school,306 Cobbitty Road,COBBITTY,2570.0,-34.0159,150.685938
5064133,Narellan Public School - Buildings B00A and B00B and Landscape,Built,,1,5,2.157,Dharug,Narellan,290 Camden Valley Way Narellan 2567,Camden,290,Camden Valley Way,narellan public school,Buildings B00A and B00B and Landscape,2704.0,50217.0,narellan public school,Camden Valley Way,Narellan,2567.0,-34.042764,150.733769
5064134,Rossmore Public School - Buildings B00E-B00G,Built,,1,5,0.5571,Dharug,Rossmore,633 Bringelly Road Rossmore 2557,Camden,633,Bringelly Road,rossmore public school,Buildings B00E-B00G,2999.0,56268.0,rossmore public school,631 BRINGELLY ROAD,ROSSMORE,2557.0,-33.946493,150.770857
5064136,Camden Public School,Complex / Group,Education,1,6,3.1033,Dhawa,Camden,25 John Street Camden 2570,Camden,25,John Street,camden public school,,1482.0,50220.0,camden public school,25 JOHN STREET,CAMDEN,2570.0,-34.051998,150.693236
5065988,Leppington Public School - Buildings B00H-B00M,Built,,1,6,0.8062,Dharug,Leppington,144 Rickards Road Leppington 2171,Camden,144,Rickards Road,leppington public school,Buildings B00H-B00M,2926.0,48548.0,leppington public school,144 Rickard Rd,Leppington,2179.0,-33.959269,150.810901
5064137,Hurlstone Agricultural High School - Building B00E,Built,,1,5,37.77,Dhawa,Glenfield,Roy Watts Road Glenfield 2167,Campbelltown ,,Roy Watts Road,hurlstone agricultural high school,Building B00E,8121.0,48523.0,hurlstone agricultural high school,Roy Watts Rd,Glenfield ,2167.0,-33.970383,150.893629
5064138,Ingleburn Public School - Buildings B00A and B00F,Built,,1,5,0.5906,Dhawa,Ingleburn,51 Oxford Road Ingleburn 2565,Campbelltown ,51,Oxford Road,ingleburn public school,Buildings B00A and B00F,2206.0,44415.0,ingleburn public school,Oxford Rd,Ingleburn ,2565.0,-34.000332,150.866612
5066343,"Ajuga, Campbell House and Glenfield Park School - Buildings B00A-B00J, B00L and B00N, Residence, Ancillary structures, Landscape and Grounds",Built,,0,6,43.12,Dhawa,Glenfield,Campbelltown Road Glenfield 2167,Campbelltown ,,Campbelltown Road,"ajuga, campbell house and glenfield park school","Buildings B00A-B00J, B00L and B00N, Residence, Ancillary structures, Landscape and Grounds",,,,,,,,
5064139,Abbotsford Public School - Buildings B00A and B00B,Built,,1,5,1.77,Eora,Abbotsford,348 Great North Road Abbotsford 2046,Canada Bay,348,Great North Road,abbotsford public school,Buildings B00A and B00B,1001.0,44402.0,abbotsford public school,350 Great North Rd,Abbotsford ,2046.0,-33.852728,151.131206
5064140,"Mortlake Public School - Buildings B001, B004, B005 and B006; Grounds and Significant Trees",Built,,1,5,1.5556,Dharug,Concord,15 Archer Street Concord 2137,Canada Bay,15,Archer Street,mortlake public school,"Buildings B001, B004, B005 and B006; Grounds and Significant Trees",2625.0,47784.0,mortlake public school,Brays Rd,Concord,2137.0,-33.849829,151.103861
5064141,"Concord Public School - Buildings B00A, B00E, B00F and B00H; Grounds and Significant Trees",Built,,1,5,1.17591,Dharug,Concord,66 Burwood Road Concord 2137,Canada Bay,66,Burwood Road,concord public school,"Buildings B00A, B00E, B00F and B00H; Grounds and Significant Trees",1607.0,47782.0,concord public school,Burwood Rd,Concord ,2137.0,-33.863224,151.106944
5064185,Concord High School - Grounds,Landscape,,1,5,3.37583,Eora,Concord,5 Stanley Street Concord 2137,Canada Bay,5,Stanley Street,concord high school,Grounds,8535.0,47783.0,concord high school,Stanley St,Concord ,2137.0,-33.864062,151.109271
5064186,"Concord West Public School - Buildings B00A, B00C and B00D",Built,,1,5,1.6267,Eora,Concord West,368-378 Concord Road Concord West 2138,Canada Bay,368-378,Concord Road,concord west public school,"Buildings B00A, B00C and B00D",1608.0,47786.0,concord west public school,Concord Rd,Concord West ,2138.0,-33.839613,151.087317
5064187,Rivendell School - Buildings B00A-B00D and Grounds,Built,,3,5,,Eora,Concord West,1A Hospital Road Concord West 2138,Canada Bay,1A,Hospital Road,rivendell school,Buildings B00A-B00D and Grounds,5654.0,56313.0,rivendell school,Thomas Walker Est  Hospital Rd,Concord West ,2138.0,-33.832948,151.09845
5064189,Victoria Avenue Public School - Grounds,Landscape,,1,5,0.9072,Eora,Concord West,64-66 Victoria Avenue Concord West 2138,Canada Bay,64-66,Victoria Avenue,victoria avenue public school,Grounds,4655.0,70234.0,victoria avenue public school,64-66 Victoria Avenue,CONCORD WEST,2138.0,-33.847748,151.083379
5064190,Drummoyne Public School - Building B00A,Built,,1,5,0.93075,Eora,Drummoyne,52 Thompson Street Drummoyne 2047,Canada Bay,52,Thompson Street,drummoyne public school,Building B00A,1774.0,47603.0,drummoyne public school,Rawson Ave,Drummoyne ,2047.0,-33.856073,151.153035
5064191,"Five Dock Public School - Buildings B00A, B00B, B00E and B00G and Landscape",Built,,1,5,1.82,Eora,Five Dock,33 Henry Street Five Dock 2046,Canada Bay,33,Henry Street,five dock public school,"Buildings B00A, B00B, B00E and B00G and Landscape",1920.0,47599.0,five dock public school,13/33 Henry St,Five Dock ,2046.0,-33.866859,151.127318
5064192,Strathfield North Public School - Buildings B00B and B00G and Grounds,Built,,1,5,1.509,Eora,North Strathfield,249 Concord Road North Strathfield 2137,Canada Bay,249,Concord Road,strathfield north public school,Buildings B00B and B00G and Grounds,3123.0,47785.0,strathfield north public school,251 Concord Rd,North Strathfield ,2137.0,-33.854531,151.09204
5064193,Drummoyne Public School,Complex / Group,Education,1,6,0.93075,Eora,Drummoyne,52 Thompson Street Drummoyne 2047,Canada Bay,52,Thompson Street,drummoyne public school,,1774.0,47603.0,drummoyne public school,Rawson Ave,Drummoyne ,2047.0,-33.856073,151.153035
5064194,Canterbury Public School - Buildings B00A-B00C and B00F,Built,,1,5,0.2037,Eora,Canterbury,44A Church Street Canterbury 2193,Canterbury,44A,Church Street,canterbury public school,Buildings B00A-B00C and B00F,1497.0,48561.0,canterbury public school,Church St,Canterbury ,2193.0,-33.908761,151.122306
5064196,Ashbury Public School,Complex / Group,Education,1,6,1.05842,Eora,Ashbury,36-76 Trevenar Street Ashbury 2193,Canterbury,36-76,Trevenar Street,ashbury public school,,1064.0,47773.0,ashbury public school,34-76 Trevenar St,Ashbury,2193.0,-33.898833,151.11944
5066497,Ashbury Public School - Building B00C,Built,,0,6,0.24026,Eora,Ashbury,36-76 Trevenar Street Ashbury 2193,Canterbury,36-76,Trevenar Street,ashbury public school,Building B00C,1064.0,47773.0,ashbury public school,34-76 Trevenar St,Ashbury,2193.0,-33.898833,151.11944
5066673,Ashbury Public School - Building B00A,Built,,0,6,0.36738,Eora,Ashbury,36-76 Trevenar Street Ashbury 2193,Canterbury,36-76,Trevenar Street,ashbury public school,Building B00A,1064.0,47773.0,ashbury public school,34-76 Trevenar St,Ashbury,2193.0,-33.898833,151.11944
5067002,Canterbury Girls High School - Buildings B00A and B00F,Built,,0,6,,Eora,Canterbury,44A Church Street Canterbury 2193,Canterbury,44A,Church Street,canterbury girls high school,Buildings B00A and B00F,8806.0,46393.0,canterbury girls high school,Church St,Canterbury ,2193.0,-33.907264,151.122631
5064197,Carrathool Public School - Residence,Built,,1,5,0.8094,Wiradjuri,Carrathool,3-5 Herriot Street Carrathool 2711,Carrathool,3-May,Herriot Street,carrathool public school,Residence,,,,,,,,
5064198,"Goolgowi Public School - Buildings B00A, B00B and B00D",Built,,1,5,2.294,Wiradjuri,Goolgowi,32-48 Moira Street Goolgowi 2652,Carrathool,32-48,Moira Street,goolgowi public school,"Buildings B00A, B00B and B00D",2035.0,50496.0,goolgowi public school,Penney St,Goolgowi,2652.0,-33.97571,145.709221
5064199,"Hillston Central School - Buildings B00E, B00H, B00I and B00J",Built,,1,5,2.12042,Wiradjuri,Hillston,42-68 Moore Street Hillston 2675,Carrathool,42-68,Moore Street,hillston central school,"Buildings B00E, B00H, B00I and B00J",2165.0,46478.0,hillston central school,62-80 Moore St,Hillston ,2675.0,-33.479904,145.54026
5064200,Rankins Springs Public School - Buildings B00B-B00D,Built,,1,5,2.29,Wiradjuri,Rankins Springs,13-23 Boree Street Rankins Springs 2669,Carrathool,13-23,Boree Street,rankins springs public school,Buildings B00B-B00D,2935.0,50531.0,rankins springs public school,Boree St,Rankins Springs ,2669.0,-33.83998,146.258245
5064201,White Cliffs Public School - Building B00A,Built,,1,5,0.8094,Bagandji,White Cliffs,Johnston Street White Cliffs 2836,Central Darling,,Johnston Street,white cliffs public school,Building B00A,3435.0,51060.0,white cliffs public school,Johnstone St,White Cliffs ,2836.0,-30.850852,143.090278
5064202,Wilcannia Central School - Building B00F,Built,,1,5,0.2024,Bagandji,Wilcannia,90-98 Woore Street Wilcannia 2836,Central Darling,90-98,Woore Street,wilcannia central school,Building B00F,3442.0,46486.0,wilcannia central school,Barrier Hwy,Wilcannia ,2836.0,-31.558478,143.37591
5064203,"Cessnock Public School - Buildings B00A, B0E, B00K and B00L",Built,,1,5,2.15,Darkinjung,Cessnock,1 Rawson Street Cessnock 2325,Cessnock,1,Rawson Street,cessnock public school,"Buildings B00A, B0E, B00K and B00L",1542.0,49278.0,cessnock public school,Rawson St,Cessnock ,2325.0,-32.840405,151.363808
5064204,Abermain Public School - Building B00A,Built,,1,5,2.422,Wanaruah,Abermain,1 Goulburn Street Abermain 2326,Cessnock,1,Goulburn Street,abermain public school,Building B00A,1003.0,49299.0,abermain public school,Goulburn St,Abermain ,2326.0,-32.80892,151.426499
5064205,Cessnock High School - Buildings B00A and B00B,Built,,1,5,2.023,Darkinjung,Cessnock,49E Aberdare Road Cessnock 2325,Cessnock,49E,Aberdare Road,cessnock high school,Buildings B00A and B00B,8108.0,46420.0,cessnock high school,Aberdare St,Cessnock ,2325.0,-32.842954,151.368528
5064206,Cessnock East Public School - Building B00A,Built,,1,5,3.167,Darkinjung,Cessnock,360 Maitland Road Cessnock 2325,Cessnock,360,Maitland Road,cessnock east public school,Building B00A,1543.0,49053.0,cessnock east public school,Old Maitland Rd,Cessnock ,2325.0,-32.827606,151.369746
5064207,Cessnock West Public School - Buildings B00A and B00E,Built,,1,5,0.56292,Darkinjung,Cessnock,113 Alfred Street Cessnock 2325,Cessnock,113,Alfred Street,cessnock west public school,Buildings B00A and B00E,1545.0,49281.0,cessnock west public school,Wollombi & Campbell Sts,Cessnock ,2325.0,-32.838387,151.344863
5064209,Ellalong Public School - Building B00A and Memorial Gates,Built,,1,5,1.8914,Darkinjung,Ellalong,Helena Street Ellalong 2325,Cessnock,,Helena Street,ellalong public school,Building B00A and Memorial Gates,1826.0,49285.0,ellalong public school,32 Helena Street,ELLALONG,2325.0,-32.914749,151.311974
5064210,Greta Public School - Building B00A,Built,,1,5,1.62,Wanaruah,Greta,2a Wyndham Street Greta 2334,Cessnock,2a,Wyndham Street,greta public school,Building B00A,2084.0,49330.0,greta public school,2A Wyndham Street,GRETA,2334.0,-32.680083,151.38721
5064211,Kearsley Public School - Building B00A and Memorial Gates,Built,,1,5,1.188,Darkinjung,Kearsley,130 Caledonia Street Kearsley 2325,Cessnock,130,Caledonia Street,kearsley public school,Building B00A and Memorial Gates,2267.0,49287.0,kearsley public school,130 Caledonia Street,KEARSLEY,2325.0,-32.857249,151.395921
5064212,Kitchener Public School - Building B00A,Built,,1,5,2.362,Darkinjung,Kitchener,35-58 Richmond Road Kitchener 2325,Cessnock,35-58,Richmond Road,kitchener public school,Building B00A,2315.0,49288.0,kitchener public school,38 Richmond Street,KITCHENER,2325.0,-32.87782,151.369977
5064216,Kurri Kurri Public School - Buildings B00A-B00E,Built,,1,5,2.147,Awabakal,Kurri Kurri,202 Lang Street Kurri Kurri 2327,Cessnock,202,Lang Street,kurri kurri public school,Buildings B00A-B00E,7422.0,49304.0,kurri kurri public school,Lang St,Kurri Kurri ,2327.0,-32.821099,151.478156
5064223,Kurri Kurri High School - Movable Item,Movable / Collection,,1,5,0.6026,Awabakal,Kurri Kurri,11 Deakin Street Kurri Kurri 2327,Cessnock,11,Deakin Street,kurri kurri high school,Movable Item,8177.0,46345.0,kurri kurri high school,Stanford & Deakin Sts,Kurri Kurri ,2327.0,-32.810142,151.486294
5064224,Laguna Public School - Building B00A,Built,,1,5,0.7882,Darkinjung,Laguna,3738 Great North Road Laguna 2325,Cessnock,3738,Great North Road,laguna public school,Building B00A,2356.0,49290.0,laguna public school,3738 The Great North Road,Laguna,2325.0,-32.992121,151.130526
5064225,Millfield Public School - Buildings B00A and B00G and Memorial Gates,Built,,1,5,2.79452,Darkinjung,Millfield,129 Wollombi Road Millfield 2325,Cessnock,129,Wollombi Road,millfield public school,Buildings B00A and B00G and Memorial Gates,2555.0,49292.0,millfield public school,Wollombi Rd,Millfield ,2325.0,-32.889837,151.250774
5064226,Nukalba Public School - Building B00A,Built,,1,5,1.717,Wanaruah,Nulkaba,5 O'Connors Road Nulkaba 2325,Cessnock,5,O'Connors Road,nukalba public school,Building B00A,,,,,,,,
5064227,Paxton Public School - Building B00A,Built,,1,5,1.821,Darkinjung,Paxton,20 Anderson Avenue Paxton 2325,Cessnock,20,Anderson Avenue,paxton public school,Building B00A,2846.0,49296.0,paxton public school,20 Anderson Ave,Paxton ,2325.0,-32.900993,151.284621
5064228,Pelaw Main Public School - Memorial Gates,Built,,1,5,1.20485,Awabakal,Pelaw Main,10-16 Abermain Street Pelaw Main 2327,Cessnock,Oct-16,Abermain Street,pelaw main public school,Memorial Gates,2855.0,49305.0,pelaw main public school,Abermain St,Pelaw Main ,2327.0,-32.831923,151.484743
5064229,Weston Public School - Buildings B00A and B00E,Built,,1,5,1.69974,Awabakal,Weston,20-34 Sixth Street Weston 2326,Cessnock,20-34,Sixth Street,weston public school,Buildings B00A and B00E,3431.0,49301.0,weston public school,20 Sixth Street,WESTON,2326.0,-32.809043,151.461023
5064230,"Wollombi Public School - Buildings B00A, B00B, B00E, B00G and B00H",Built,,1,5,0.8092,Darkinjung,Wollombi,2847 Wollombi Road Wollombi 2325,Cessnock,2847,Wollombi Road,wollombi public school,"Buildings B00A, B00B, B00E, B00G and B00H",,,,,,,,
5064231,Wollombi Public School,Complex / Group,Education,1,6,0.8092,Darkinjung,Wollombi,2847 Wollombi Road Wollombi 2325,Cessnock,2847,Wollombi Road,wollombi public school,,,,,,,,,
5064232,Chatsworth Island Public School - Buildings B00A and B00C,Built,,1,5,0.8094,Bundjalung,Chatsworth Island,136-140 Chatsworth Road Chatsworth Island 2469,Clarence Valley,136-140,Chatsworth Road,chatsworth island public school,Buildings B00A and B00C,1553.0,49707.0,chatsworth island public school,Chatsworth Island Rd,CHATSWORTH,2469.0,-29.387954,153.231645
5064235,Copmanhurst Public School - Buildings B00A and B00E,Built,,1,5,1.227,Bundjalung,Copmanhurst,11-13 Prescott Street Copmanhurst 2460,Clarence Valley,Nov-13,Prescott Street,copmanhurst public school,Buildings B00A and B00E,1642.0,49708.0,copmanhurst public school,COPMANHURST PUBLIC SCHOOL 13 PRESCOTT STREET,COPMANHURST,2460.0,-29.584663,152.775537
5064236,Grafton High School - Buildings B00D and B00L,Built,,1,5,4.479,Gumbainggar,Grafton,85-103 Mary Street Grafton 2460,Clarence Valley,85-103,Mary Street,grafton high school,Buildings B00D and B00L,8117.0,49711.0,grafton high school,97 Mary Street,GRAFTON,2460.0,-29.682105,152.932509
5064237,Grafton Administrative Office - Buildings D01 and D03,Built,,1,5,4.479,Gumbainggar,Grafton,85-103 Mary Street Grafton 2460,Clarence Valley,85-103,Mary Street,grafton administrative office,Buildings D01 and D03,,,,,,,,
5064243,Harwood Island Public School - Buildings B00A and B00E,Built,,1,5,1.44,Bundjalung,Harwood Island,Morpeth Street Harwood Island 2465,Clarence Valley,,Morpeth Street,harwood island public school,Buildings B00A and B00E,2142.0,49730.0,harwood island public school,11 Morpeth St,HARWOOD,2465.0,-29.425605,153.240299
5064290,Maclean Public School - Buildings B00B and B00J,Built,,1,5,1.87839,Gumbainggar,Maclean,Woodford Street Maclean 2463,Clarence Valley,,Woodford Street,maclean public school,Buildings B00B and B00J,3946.0,49727.0,maclean public school,Woodford St,Maclean,2463.0,-29.457217,153.201309
5064301,Chatsworth Island Public School,Complex / Group,Education,1,6,0.8094,Bundjalung,Chatsworth Island,136-140 Chatsworth Road Chatsworth Island 2469,Clarence Valley,136-140,Chatsworth Road,chatsworth island public school,,1553.0,49707.0,chatsworth island public school,Chatsworth Island Rd,CHATSWORTH,2469.0,-29.387954,153.231645
5064303,Grafton High School,Complex / Group,Education,1,6,4.479,Gumbainggar,Grafton,85-103 Mary Street Grafton 2460,Clarence Valley,85-103,Mary Street,grafton high school,,8117.0,49711.0,grafton high school,97 Mary Street,GRAFTON,2460.0,-29.682105,152.932509
5064304,Grafton Administrative Office,Complex / Group,Education,1,6,,Gumbainggar,Grafton,85-103 Mary Street Grafton 2460,Clarence Valley,85-103,Mary Street,grafton administrative office,,,,,,,,,
5064305,Grafton High School - Agricultural Plot 1,Complex / Group,Education,1,6,2.436,Gumbainggar,Grafton,Bowtell Avenue Grafton 2460,Clarence Valley,,Bowtell Avenue,grafton high school,Agricultural Plot 1,8117.0,49711.0,grafton high school,97 Mary Street,GRAFTON,2460.0,-29.682105,152.932509
5064308,Grafton High School - Agricultural Plot 2,Complex / Group,Education,1,6,2.12,Gumbainggar,Grafton,Bowtell Avenue Grafton 2460,Clarence Valley,,Bowtell Avenue,grafton high school,Agricultural Plot 2,8117.0,49711.0,grafton high school,97 Mary Street,GRAFTON,2460.0,-29.682105,152.932509
5064309,Harwood Island Public School,Complex / Group,Education,1,6,1.44,Bundjalung,Harwood Island,Morpeth Street Harwood Island 2465,Clarence Valley,,Morpeth Street,harwood island public school,,2142.0,49730.0,harwood island public school,11 Morpeth St,HARWOOD,2465.0,-29.425605,153.240299
5064310,Maclean Public School,Complex / Group,Education,1,6,1.87839,Bundjalung,Maclean,Woodford Street Maclean 2463,Clarence Valley,,Woodford Street,maclean public school,,3946.0,49727.0,maclean public school,Woodford St,Maclean,2463.0,-29.457217,153.201309
5064311,Ulmarra Public School,Complex / Group,Education,1,6,1.512,Gumbainggar,Ulmarra,14 Pacific Highway Ulmarra 2462,Clarence Valley,14,Pacific Highway,ulmarra public school,,3303.0,57495.0,ulmarra public school,2476 Big River Way,Ulmarra,2462.0,-29.629006,153.030932
5064314,"Cobar Public School - Buildings B00D, B00E and B00O (Residence)",Built,,1,5,0.4262,Ngiyampaa,Cobar,6-10 Blakey Street Cobar 2835,Cobar,6-Oct,Blakey Street,cobar public school,"Buildings B00D, B00E and B00O (Residence)",1578.0,51059.0,cobar public school,6-8 Blakey St,Cobar ,2835.0,-31.502199,145.836609
5064315,Coffs Harbour State High School - Building B00A,Built,,1,5,3.329266,Gumbainggar,Coffs Harbour,336 Harbour Drive Coffs Harbour 2450,Coffs Harbour ,336,Harbour Drive,coffs harbour state high school,Building B00A,,,,,,,,
5064316,"Coffs Harbour Public School - Buildings B00B-B00D, B00F, B00G and B00I",Built,,1,5,3.4526,Gumbainggar,Coffs Harbour,7 Salamander Street Coffs Harbour 2450,Coffs Harbour ,7,Salamander Street,coffs harbour public school,"Buildings B00B-B00D, B00F, B00G and B00I",1584.0,49655.0,coffs harbour public school,7 Salamander Street,COFFS HARBOUR,2450.0,-30.30196,153.120372
5064317,Coramba Public School - Buildings B00A and B00F,Built,,1,5,0.8094,Gumbainggar,Coramba,6 Short Street Coramba 2450,Coffs Harbour ,6,Short Street,coramba public school,Buildings B00A and B00F,1647.0,49656.0,coramba public school,6 Short St,Coramba ,2450.0,-30.221578,153.011513
5064318,Sawtell Public School - Buildng B00F,Built,,1,5,2.25322,Gumbainggar,Sawtell,32 Eleventh Avenue Sawtell 2452,Coffs Harbour ,32,Eleventh Avenue,sawtell public school,Buildng B00F,3042.0,49669.0,sawtell public school,32-36 Eleventh Ave,Sawtell ,2452.0,-30.363316,153.09764
5064319,Woolgoolga Public School - Building B00D-B00F and B00G,Built,,1,5,1.42676,Gumbainggar,Woolgoolga,1-15 Scarborough Street Woolgoolga 2456,Coffs Harbour ,Jan-15,Scarborough Street,woolgoolga public school,Building B00D-B00F and B00G,3503.0,49681.0,woolgoolga public school,Scarborough St,Woolgoolga ,2456.0,-30.112673,153.196501
5064320,"Ganmain Public School - Buildings B00A, B00B, B00E, B00F, B00H and Grounds",Built,,1,5,3.5778,Wiradjuri,Ganmain,23-41 Langham Street Ganmain 2702,Coolamon,23-41,Langham Street,ganmain public school,"Buildings B00A, B00B, B00E, B00F, B00H and Grounds",1954.0,50553.0,ganmain public school,25-41 Langham St,Ganmain,2702.0,-34.796923,147.040034
5064321,Marrar Public School - Building B00A,Built,,1,5,1.053,Wiradjuri,Marrar,9-13 Centenary Drive Marrar 2652,Coolamon,Sep-13,Centenary Drive,marrar public school,Building B00A,2485.0,50501.0,marrar public school,Centenary Drive,Marrar ,2652.0,-34.828341,147.355155
5064322,"Matong Public School - Buildings B00A-B00C, B00K and Significant Tree",Built,,1,5,2.55,Wiradjuri,Matong,Matong Street Matong 2652,Coolamon,,Matong Street,matong public school,"Buildings B00A-B00C, B00K and Significant Tree",2501.0,50502.0,matong public school,5649 Canola Way,MATONG,2652.0,-34.770061,146.927303
5064323,Bredbo Public School - Buildings B00A and B00B,Built,,1,5,1.6295,Ngarigu,Bredbo,Monaro Highway Bredbo 2626,Cooma-Monaro,,Monaro Highway,bredbo public school,Buildings B00A and B00B,1347.0,50422.0,bredbo public school,Monaro Hwy,Bredbo ,2626.0,-35.95399,149.14797
5064324,"Cooma Public School - Buildings B00D, B00F, B00H and B00I",Built,,1,5,1.469,Ngarigu,Cooma,Commissioner Street Cooma 2630,Cooma-Monaro,,Commissioner Street,cooma public school,"Buildings B00D, B00F, B00H and B00I",1628.0,50428.0,cooma public school,Commissioner St,Cooma ,2630.0,-36.237474,149.125034
5064326,Jerangle Public School - Landscape,Built,,1,5,0.8114,Ngarigu,Jerangle,2892 Jerangle Road Jerangle 2630,Cooma-Monaro,2892,Jerangle Road,jerangle public school,Landscape,,,,,,,,
5064327,Michelago Public School - Buildings B00A and B00B,Built,,1,5,0.8094,Ngarigu,Michelago,20 Ryrie Street Michelago 2620,Cooma-Monaro,20,Ryrie Street,michelago public school,Buildings B00A and B00B,2540.0,50262.0,michelago public school,20 Ryrie Street,Michelago,2620.0,-35.705975,149.161716
5064328,Nimmitabel Public School - Buildings B00A-B00C,Built,,1,5,2.1603,Ngarigu,Nimmitabel,Wolfe Street Nimmitabel 2631,Cooma-Monaro,,Wolfe Street,nimmitabel public school,Buildings B00A-B00C,2752.0,50434.0,nimmitabel public school,Wolfe Street,NIMMITABEL,2631.0,-36.510937,149.289599
5064335,Numeralla Public School - Building B00A and Residence,Built,,1,5,4.0135,Ngarigu,Numeralla,7-9 Umeralla Street Numeralla 2630,Cooma-Monaro,7-Sep,Umeralla Street,numeralla public school,Building B00A and Residence,,,,,,,,
5064336,Cooma Public School,Complex / Group,Education,1,6,1.469,Ngarigu,Cooma,Commissioner Street Cooma 2630,Cooma-Monaro,,Commissioner Street,cooma public school,,1628.0,50428.0,cooma public school,Commissioner St,Cooma ,2630.0,-36.237474,149.125034
5064337,"Cootamundra Public School - Buildings B00A, B00B, B00B1 and B00B2",Built,,1,5,1.57072,Wiradjuri,Cootamundra,Cooper Street Cootamundra 2590,Cootamundra,,Cooper Street,cootamundra public school,"Buildings B00A, B00B, B00B1 and B00B2",1636.0,50291.0,cootamundra public school,Cooper St,Cootamundra,2590.0,-34.638914,148.026809
5064338,"Stockinbingal Public School - Buildings B00A, B00B and B00D",Built,,1,5,0.85156,Wiradjuri,Stockinbingal,Dudauman Street Stockinbingal 2725,Cootamundra,,Dudauman Street,stockinbingal public school,"Buildings B00A, B00B and B00D",3109.0,50662.0,stockinbingal public school,Britannia St,Stockinbingal ,2725.0,-34.497611,147.883065
5064339,"Wallendbeen Public School - Buildings B00A, B00B and B00E, Residence and Bell",Built,,1,5,1.699,Wiradjuri,Wallendbeen,7-15 King Street Wallendbeen 2588,Cootamundra,Jul-15,King Street,wallendbeen public school,"Buildings B00A, B00B and B00E, Residence and Bell",3353.0,50288.0,wallendbeen public school,King St,Wallendbeen ,2588.0,-34.52524,148.159228
5064340,Cootamundra Public School,Complex / Group,Education,1,6,1.57072,Wiradjuri,Cootamundra,Cooper Street Cootamundra 2590,Cootamundra,,Cooper Street,cootamundra public school,,1636.0,50291.0,cootamundra public school,Cooper St,Cootamundra,2590.0,-34.638914,148.026809
5064341,Howlong Public School - Building B00F,Built,,1,5,0.6069,Wiradjuri,Howlong,121-135 Hawkins Street Howlong 2643,Corowa,121-135,Hawkins Street,howlong public school,Building B00F,2186.0,50459.0,howlong public school,121 Hawkins St,HOWLONG,2643.0,-35.979939,146.636764
5064342,Ballimore Public School - Buildings B00A and B00B,Built,,1,5,2.071,Wiradjuri,Ballimore,22 Bomen Street Ballimore 2830,Dubbo,22,Bomen Street,ballimore public school,Buildings B00A and B00B,1111.0,51039.0,ballimore public school,Bomen St,Ballimore ,2830.0,-32.193596,148.899631
5064343,Dubbo Public School - Building B00K and Landscape,Built,,1,5,0.2039,Wiradjuri,Dubbo,179 Darling Street Dubbo 2830,Dubbo,179,Darling Street,dubbo public school,Building B00K and Landscape,1775.0,51041.0,dubbo public school,181 Darling St,Dubbo ,2830.0,-32.248749,148.60541
5064344,"Dubbo Public School - Buildings B00A, B00D and B00F",Built,,1,5,0.645,Wiradjuri,Dubbo,181 Darling Street Dubbo 2830,Dubbo,181,Darling Street,dubbo public school,"Buildings B00A, B00D and B00F",1775.0,51041.0,dubbo public school,181 Darling St,Dubbo ,2830.0,-32.248749,148.60541
5064345,Wambangalang Environmental Education Centre - Buildings B00A-B00D,Built,,1,5,3.844,Wiradjuri,Toongi,Obley Road Toongi 2830,Dubbo,,Obley Road,wambangalang environmental education centre,Buildings B00A-B00D,5681.0,64091.0,wambangalang environmental education centre,Obley Rd,Dubbo ,2830.0,-32.48798,148.554792
5064346,"Wongarbon Public School - Buildings B00A, B00E, B00F and B00H and Memorial",Built,,1,5,0.2023,Wiradjuri,Wongarbon,28 Railway Street Wongarbon 2831,Dubbo,28,Railway Street,wongarbon public school,"Buildings B00A, B00E, B00F and B00H and Memorial",3487.0,51056.0,wongarbon public school,Railway Street,WONGARBON,2831.0,-32.333558,148.759119
5064347,Clarence Town Public School - Buildings B00A and B00B,Built,,1,5,0.4046,Gaddhang,Clarence Town,82 Queen Street Clarence Town 2321,Dungog,82,Queen Street,clarence town public school,Buildings B00A and B00B,1564.0,49164.0,clarence town public school,Queen St,Clarence Town ,2321.0,-32.588731,151.777207
5064348,Dungog Public School - Buildings B00B-B00D and B00K,Built,,1,5,1.42222,Gaddhang,Dungog,7-17 Chapman Street Dungog 2420,Dungog,Jul-17,Chapman Street,dungog public school,Buildings B00B-B00D and B00K,1792.0,49519.0,dungog public school,9 Chapman St,Dungog ,2420.0,-32.405233,151.757709
5064350,Glen William Public School - Significant Trees,Built,,1,5,0.8115,Gaddhang,Glen William,717 Glen William Road Glen William 2321,Dungog,717,Glen William Road,glen william public school,Significant Trees,2020.0,49172.0,glen william public school,Glen William & Dungog Rds,Clarence Town ,2321.0,-32.525391,151.79794
5064351,Gresford Public School - Buildings B00A and B00E,Built,,1,5,1.126,Gaddhang,Gresford,151 Durham Road Gresford 2311,Dungog,151,Durham Road,gresford public school,Buildings B00A and B00E,2083.0,49931.0,gresford public school,Durham Rd,Gresford ,2311.0,-32.427628,151.538335
5064352,Dungog Public School - North,Complex / Group,Education,1,6,0.324,Gaddhang,Dungog,7-17 Chapman Street Dungog 2420,Dungog,Jul-17,Chapman Street,dungog public school,North,1792.0,49519.0,dungog public school,9 Chapman St,Dungog ,2420.0,-32.405233,151.757709
5064353,Dungog Public School - South,Complex / Group,Education,1,6,0.6819,Gaddhang,Dungog,7-17 Chapman Street Dungog 2420,Dungog,Jul-17,Chapman Street,dungog public school,South,1792.0,49519.0,dungog public school,9 Chapman St,Dungog ,2420.0,-32.405233,151.757709
5064354,Dungog Public School - Playing Fields,Complex / Group,Education,1,6,0.47734,Gaddhang,Dungog,8 Chapman Street Dungog 2420,Dungog,8,Chapman Street,dungog public school,Playing Fields,1792.0,49519.0,dungog public school,9 Chapman St,Dungog ,2420.0,-32.405233,151.757709
5064355,Paterson Public School - Residence,Complex / Group,Education,1,6,0.8092,Gaddhang,Paterson,4 Church Street Paterson 2421,Dungog,4,Church Street,paterson public school,Residence,2844.0,49521.0,paterson public school,Webbers Creek Rd,Paterson ,2421.0,-32.602294,151.612319
5064356,Bodalla Public School - Former - Buildings B00G and B00H,Built,,1,5,2.02,Dhurga,Bodalla,7 Eurobodalla Road Bodalla 2545,Eurobodalla,7,Eurobodalla Road,bodalla public school,Former,1272.0,50175.0,bodalla public school,Potato Point Rd,Bodalla ,2545.0,-36.09938,150.053879
5064357,"Central Tilba Public School - Buildings B00A, B00B and B00D",Built,,1,5,0.8094,Dhurga,Central Tilba,89 Corkhill Drive Central Tilba 2546,Eurobodalla,89,Corkhill Drive,central tilba public school,"Buildings B00A, B00B and B00D",3214.0,50176.0,central tilba public school,89 Corkhill Drive,Central Tilba ,2546.0,-36.315664,150.07194
5064358,Mogo Public School - Buildings B00A and B00B,Built,,1,5,0.8094,Dhurga,Mogo,64-72 Sydney Road Mogo 2536,Eurobodalla,64-72,Sydney Road,mogo public school,Buildings B00A and B00B,2586.0,50058.0,mogo public school,Princes Hwy,Mogo ,2536.0,-35.786091,150.140569
5064359,Moruya Public School - Buildings B00A-B00C and B00J,Built,,1,5,2.387,Dhurga,Moruya,16 Evans Street Moruya 2537,Eurobodalla,16,Evans Street,moruya public school,Buildings B00A-B00C and B00J,2628.0,50061.0,moruya public school,22 Evans St,Moruya ,2537.0,-35.912616,150.076453
5064360,Narooma Public School - Building B00B,Built,,1,5,0.283,Dhurga,Narooma,19 Montague Street Narooma 2546,Eurobodalla,19,Montague Street,narooma public school,Building B00B,2758.0,50177.0,narooma public school,7 Montague St,Narooma ,2546.0,-36.218595,150.137335
5064361,Narooma Public School - Building B00F,Built,,1,5,1.336,Dhurga,Narooma,11 Montague Street Narooma 2546,Eurobodalla,11,Montague Street,narooma public school,Building B00F,2758.0,50177.0,narooma public school,7 Montague St,Narooma ,2546.0,-36.218595,150.137335
5064362,"Bossley Park Public School - Buildings B00E, B00K and B00L",Built,,1,5,2.023,Eora,Bossley Park,68 Bossley Road Bossley Park 2176,Fairfield,68,Bossley Road,bossley park public school,"Buildings B00E, B00K and B00L",1321.0,48551.0,bossley park public school,Marconi Rd,Bossley Park ,2176.0,-33.858524,150.883076
5064363,Cabramatta Public School - Building B00D,Built,,1,5,0.8083,Eora,Cabramatta,72 Cabramatta Road Cabramatta 2166,Fairfield,72,Cabramatta Road,cabramatta public school,Building B00D,1472.0,48163.0,cabramatta public school,Levuka St,Cabramatta ,2166.0,-33.895823,150.942629
5064364,Fairfield Public School - Buildings B002 and B009,Built,,1,5,2.30262,Eora,Fairfield,68-82 Smart Street Fairfield 2165,Fairfield,68-82,Smart Street,fairfield public school,Buildings B002 and B009,1895.0,48157.0,fairfield public school,68-82 Smart St,Fairfield ,2165.0,-33.866847,150.955409
5064365,Canley Vale Tutorial Centre - Building B00S,Built,,1,5,0.454,Dharug,Canley Vale,94 Canley Vale Road Canley Vale 2166,Fairfield,94,Canley Vale Road,canley vale tutorial centre,Building B00S,,,,,,,,
5066541,Fairvale High School - Building B00G,Built,,0,6,5.392,Eora,Fairfield West,1 Thorney Road Fairfield West 2165,Fairfield,1,Thorney Road,fairvale high school,Building B00G,8456.0,46468.0,fairvale high school,Thorney Rd & Maude St,Fairfield West ,2165.0,-33.873614,150.929459
5064366,"Tooraweenah Public School - Buildings B00A, B00C, B00D, B00H and B00J",Built,,1,5,0.4047,Wiradjuri,Tooraweenah,410 John Renshaw Parkway Tooraweenah 2831,Gilgandra,410,John Renshaw Parkway,tooraweenah public school,"Buildings B00A, B00C, B00D, B00H and B00J",3242.0,51055.0,tooraweenah public school,Bridge St,Tooraweenah ,2831.0,-31.434763,148.912216
5064367,Deepwater Public School - Building B00K,Built,,1,5,0.8644,Gumbainggar,Deepwater,15-25 Young Street Deepwater 2371,Glen Innes Severn,15-25,Young Street,deepwater public school,Building B00K,1742.0,49423.0,deepwater public school,Young St,Deepwater ,2371.0,-29.442908,151.848086
5064369,"Glen Innes Public School - Buildings B00A, B00B, B00G-B00J",Built,,1,5,1.416,Gumbainggar,Glen Innes,170 Church Street Glen Innes 2370,Glen Innes Severn,170,Church Street,glen innes public school,"Buildings B00A, B00B, B00G-B00J",2005.0,49420.0,glen innes public school,Church St,Glen Innes ,2370.0,-29.735142,151.740989
5064370,Glen Innes Public School - Building B00D,Built,,1,5,1.416,Gumbainggar,Glen Innes,170 Church Street Glen Innes 2370,Glen Innes Severn,170,Church Street,glen innes public school,Building B00D,2005.0,49420.0,glen innes public school,Church St,Glen Innes ,2370.0,-29.735142,151.740989
5064371,Glen Innes Public School - Building B00C,Built,,1,5,0.3693,Gumbainggar,Glen Innes,170 Church Street Glen Innes 2370,Glen Innes Severn,170,Church Street,glen innes public school,Building B00C,2005.0,49420.0,glen innes public school,Church St,Glen Innes ,2370.0,-29.735142,151.740989
5064372,Glen Innes West Public School - Building B00A,Built,,1,5,1.3706,Gumbainggar,Glen Innes,33 Coronation Avenue Glen Innes 2370,Glen Innes Severn,33,Coronation Avenue,glen innes west public school,Building B00A,,,,,,,,
5064373,"Glen Innes High School - Buildings B00A-B00F, Landscape and War Memorial",Built,,1,5,1.881,Gumbainggar,Glen Innes,21 Edward Street Glen Innes 2370,Glen Innes Severn,21,Edward Street,glen innes high school,"Buildings B00A-B00F, Landscape and War Memorial",8114.0,49419.0,glen innes high school,Edwards St,Glen Innes ,2370.0,-29.744294,151.742487
5064374,Barrington Public School - Building B00A,Built,,1,5,0.8096,Birpai,Barrington,Kenmore Street Barrington 2422,Gloucester,,Kenmore Street,barrington public school,Building B00A,1143.0,49523.0,barrington public school,1 Kenmore St,Barrington ,2422.0,-31.971159,151.911058
5064375,Gloucester Public School - Building B00B,Built,,1,5,1.671,Birpai,Gloucester,Elliot Street Gloucester 2422,Gloucester,,Elliot Street,gloucester public school,Building B00B,7303.0,49525.0,gloucester public school,51 Hume St,Gloucester ,2422.0,-32.010211,151.961099
5064376,Woodport Public School - Buildings B00C and B00E,Built,,1,5,1.482,Guringai,Erina,144 The Entrance Road Erina 2250,Gosford,144,The Entrance Road,woodport public school,Buildings B00C and B00E,1857.0,48676.0,woodport public school,The Entrance Rd,Erina ,2250.0,-33.439347,151.37849
5064377,Erina Heights Public School - Building B00C,Built,,1,5,2.043,Guringai,Erina Heights,2 Serpentine Road Erina Heights 2260,Gosford,2,Serpentine Road,erina heights public school,Building B00C,1856.0,48674.0,erina heights public school,Serpentine Rd,Erina Heights ,2260.0,-33.428028,151.413585
5064378,Girrakool School - Curtilage,Built,,1,5,,Guringai,Kariong,3 Central Coast Highway Kariong 2250,Gosford,3,Central Coast Highway,girrakool school,Curtilage,5456.0,56188.0,girrakool school,c/o Frank Baxter YJC The Avenue,Kariong,2250.0,-33.4237,151.296
5064379,Peats Ridge Public School - Buildings B00C-B00F,Built,,1,5,1.19,Guringai,Peats Ridge,1231 Peats Ridge Road Peats Ridge 2250,Gosford,1231,Peats Ridge Road,peats ridge public school,Buildings B00C-B00F,2852.0,48686.0,peats ridge public school,1231 Peats Ridge Road,PEATS RIDGE,2250.0,-33.325841,151.23275
5064380,Somersby Public School - Buildings B00A and B00B and Grounds,Built,,1,5,2.764,Guringai,Somersby,840 Wisemans Ferry Road Somersby 2250,Gosford,840,Wisemans Ferry Road,somersby public school,Buildings B00A and B00B and Grounds,3078.0,48688.0,somersby public school,Wisemans Ferry Rd,Gosford ,2250.0,-33.358368,151.291312
5064381,Kariong Mountains High School,Complex / Group,Education,3,6,3.854,Darkinjung,Kariong,10 Festival Drive Kariong 2250,Gosford,10,Festival Drive,kariong mountains high school,,8292.0,68626.0,kariong mountains high school,Festival Drive,Kariong,2250.0,-33.43039,151.296076
5064382,South Goulburn Public School - Building B00C,Built,,1,5,0.4047,Gandangara,Goulburn,2 Addison Street Goulburn 2580,Goulburn Mulwaree,2,Addison Street,south goulburn public school,Building B00C,,,,,,,,
5064383,Goulburn Public School - Building B00A,Built,,1,5,2.318,Gandangara,Goulburn,196 Bourke Street Goulburn 2580,Goulburn Mulwaree,196,Bourke Street,goulburn public school,Building B00A,2053.0,50257.0,goulburn public school,204 Bourke Street,Goulburn ,2580.0,-34.750563,149.717773
5064384,Goulburn High School - Building B00M,Built,,1,5,3.035,Birpai,Goulburn,132 Goldsmith Street Goulburn 2580,Goulburn Mulwaree,132,Goldsmith Street,goulburn high school,Building B00M,8116.0,50255.0,goulburn high school,Goldsmith St,Goulburn ,2580.0,-34.746861,149.711241
5064385,Goulburn North Public School - Building B00D,Built,,1,5,2.263,Gandangara,Goulburn,1A Union Street Goulburn 2580,Goulburn Mulwaree,1A,Union Street,goulburn north public school,Building B00D,2055.0,50256.0,goulburn north public school,Union St,Goulburn North ,2580.0,-34.744579,149.735043
5064386,Marulan Public School - Building B00D,Built,,1,5,0.3593,Gandangara,Marulan,61 George Street Marulan 2579,Goulburn Mulwaree,61,George Street,marulan public school,Building B00D,2496.0,50260.0,marulan public school,63 George St,Marulan ,2579.0,-34.713399,150.006603
5064387,Tallong Public School - Building B00A,Built,,1,5,0.8094,Gandangara,Tallong,80 Bumballa Street Tallong 2579,Goulburn Mulwaree,80,Bumballa Street,tallong public school,Building B00A,3154.0,50265.0,tallong public school,Bumballa St,TALLONG,2579.0,-34.721496,150.083341
5064388,Tirranna Public School - Building B00A,Built,,1,5,0.8094,Gandangara,Tirrannaville,4986 Braidwood Road Tirrannaville 2580,Goulburn Mulwaree,4986,Braidwood Road,tirranna public school,Building B00A,3222.0,50268.0,tirranna public school,Goulburn-Braidwood Rd,Goulburn ,2580.0,-34.821486,149.682068
5064389,South Goulburn Public School,Complex / Group,Education,1,6,1.76809,Gandangara,Goulburn,2 Addison Street Goulburn 2580,Goulburn Mulwaree,2,Addison Street,south goulburn public school,,,,,,,,,
5064390,Goulburn Public School,Complex / Group,Education,1,6,2.318,Gandangara,Goulburn,196 Bourke Street Goulburn 2580,Goulburn Mulwaree,196,Bourke Street,goulburn public school,,2053.0,50257.0,goulburn public school,204 Bourke Street,Goulburn ,2580.0,-34.750563,149.717773
5064391,Goulburn High School,Complex / Group,Education,1,6,3.035,Gandangara,Goulburn,132 Goldsmith Street Goulburn 2580,Goulburn Mulwaree,132,Goldsmith Street,goulburn high school,,8116.0,50255.0,goulburn high school,Goldsmith St,Goulburn ,2580.0,-34.746861,149.711241
5064392,Goulburn North Public School,Complex / Group,Education,1,6,2.263,Gandangara,Goulburn,1A Union Street Goulburn 2580,Goulburn Mulwaree,1A,Union Street,goulburn north public school,,2055.0,50256.0,goulburn north public school,Union St,Goulburn North ,2580.0,-34.744579,149.735043
5064393,Stroud Public School - Building B00B and Residence,Built,,1,5,2.9369,Birpai,Stroud,13-19 Erin Street Stroud 2425,Great Lakes,13-19,Erin Street,stroud public school,Building B00B and Residence,3125.0,49533.0,stroud public school,15-19 Erin St,STROUD,2425.0,-32.402533,151.964239
5064394,Nabiac Public School,Complex / Group,Education,1,6,1.18944,Birpai,Nabiac,Clarkson Street Nabiac 2312,Great Lakes,,Clarkson Street,nabiac public school,,2695.0,49606.0,nabiac public school,56 Clarkson St,NABIAC,2312.0,-32.097544,152.381902
5064395,Stroud Public School,Complex / Group,Education,1,6,0.6778,Birpai,Stroud,21 Erin Street Stroud 2425,Great Lakes,21,Erin Street,stroud public school,,3125.0,49533.0,stroud public school,15-19 Erin St,STROUD,2425.0,-32.402533,151.964239
5066091,Nabiac Public School - Buildings B00A and B00B,Built,,1,5,0.8094,Birpai,Nabiac,Clarkson Street Nabiac 2312,Great Lakes,,Clarkson Street,nabiac public school,Buildings B00A and B00B,2695.0,49606.0,nabiac public school,56 Clarkson St,NABIAC,2312.0,-32.097544,152.381902
5066476,Booral Public School - Buildings B00A and B00D,Built,,1,5,0.1012,Birpai,Booral,2300 The Bucketts Way Booral 2425,Great Lakes,2300,The Bucketts Way,booral public school,Buildings B00A and B00D,1311.0,49532.0,booral public school,2800 Bucketts Way,Booral ,2425.0,-32.471428,151.960736
5066477,Stroud Road Public School - Buildings B00A and B00B,Built,,1,5,0.8094,Birpai,Stroud Road,733 The Bucketts Way Stroud Road 2415,Great Lakes,733,The Bucketts Way,stroud road public school,Buildings B00A and B00B,3126.0,49516.0,stroud road public school,Bucketts Way,Stroud Road ,2415.0,-32.347986,151.932369
5066479,Bungwahl Public School - Building B00A,Built,,1,5,1.6355,Birpai,Bungwahl,56 Seal Rocks Road Bungwahl 2423,Great Lakes,56,Seal Rocks Road,bungwahl public school,Building B00A,1424.0,49529.0,bungwahl public school,56 Seal Rocks Road,BUNGWAHL,2423.0,-32.389144,152.448558
5064396,Bobin Public School - Building B00A,Built,,1,5,2.2701,Birpai,Bobin,2512 Bulga Road Bobin 2429,Greater Taree,2512,Bulga Road,bobin public school,Building B00A,1269.0,49539.0,bobin public school,Bulga Rd,Bobin ,2429.0,-31.712682,152.28388
5064398,Coopernook Public School - Buildings B00A-B00D,Built,,1,5,3.1764,Birpai,Coopernook,Macquarie Street Coopernook 2426,Greater Taree,,Macquarie Street,coopernook public school,Buildings B00A-B00D,1632.0,49534.0,coopernook public school,61 Macquarie St,Coopernook ,2426.0,-31.827512,152.607874
5064399,Coopernook Public School - Building B00H and B00I,Built,,1,5,3.1764,Birpai,Coopernook,Macquarie Street Coopernook 2426,Greater Taree,,Macquarie Street,coopernook public school,Building B00H and B00I,1632.0,49534.0,coopernook public school,61 Macquarie St,Coopernook ,2426.0,-31.827512,152.607874
5064400,Cundletown Public School - Building B00B,Built,,1,5,1.69953,Birpai,Cundletown,High Street Cundletown 2430,Greater Taree,,High Street,cundletown public school,Building B00B,1708.0,57412.0,cundletown public school,63d High St,CUNDLETOWN,2430.0,-31.899733,152.522008
5064401,Harrington Public School - Significant Trees,Landscape,,1,5,0.8094,Birpai,Harrington,37 High Street Harrington 2427,Greater Taree,37,High Street,harrington public school,Significant Trees,2139.0,49536.0,harrington public school,High St,Harrington ,2427.0,-31.870234,152.688803
5064402,Krambach Public School - Building B00B,Built,,1,5,0.8094,Birpai,Krambach,The Bucketts Way Krambach 2429,Greater Taree,,The Bucketts Way,krambach public school,Building B00B,2333.0,49542.0,krambach public school,3838 Bucketts Way,Krambach ,2429.0,-32.046146,152.272293
5064403,Taree High School - Building B00H,Built,,1,5,2.51944,Birpai,Taree,8 Albert Street Taree 2430,Greater Taree,8,Albert Street,taree high school,Building B00H,8140.0,46430.0,taree high school,Albert St,Taree ,2430.0,-31.909866,152.46386
5064404,Taree High School - Building B00A,Built,,1,5,2.51944,Birpai,Taree,8 Albert Street Taree 2430,Greater Taree,8,Albert Street,taree high school,Building B00A,8140.0,46430.0,taree high school,Albert St,Taree ,2430.0,-31.909866,152.46386
5064405,Taree Public School - Building B00B,Built,,1,5,1.082,Birpai,Taree,10 Albert Street Taree 2430,Greater Taree,10,Albert Street,taree public school,Building B00B,3167.0,49554.0,taree public school,Albert St,Taree ,2430.0,-31.910904,152.462158
5064406,Taree Public School - Building B00A,Built,,1,5,1.082,Birpai,Taree,10 Albert Street Taree 2430,Greater Taree,10,Albert Street,taree public school,Building B00A,3167.0,49554.0,taree public school,Albert St,Taree ,2430.0,-31.910904,152.462158
5064407,Tinonee Public School - Building B00I,Built,,1,5,0.8094,Birpai,Tinonee,Hutchinson Street Tinonee 2430,Greater Taree,,Hutchinson Street,tinonee public school,Building B00I,3219.0,49556.0,tinonee public school,2 Manchester St,TINONEE,2430.0,-31.932855,152.413577
5064408,Tinonee Public School - Building B00B,Built,,1,5,0.8094,Birpai,Tinonee,Hutchinson Street Tinonee 2430,Greater Taree,,Hutchinson Street,tinonee public school,Building B00B,3219.0,49556.0,tinonee public school,2 Manchester St,TINONEE,2430.0,-31.932855,152.413577
5064409,"Wingham Brush Public School - Buildings B00A-B00E, B00G, B00H and B00K",Built,,1,5,2.5984,Birpai,Wingham,4 Isabella Street Wingham 2429,Greater Taree,4,Isabella Street,wingham brush public school,"Buildings B00A-B00E, B00G, B00H and B00K",4575.0,54953.0,wingham brush public school,Isabella Street,WINGHAM,2429.0,-31.87024,152.376982
5064411,Taree High School,Complex / Group,Education,1,6,0.3793,Birpai,Taree,8 Albert Street Taree 2430,Greater Taree,8,Albert Street,taree high school,,8140.0,46430.0,taree high school,Albert St,Taree ,2430.0,-31.909866,152.46386
5064413,Taree Public School,Complex / Group,Education,1,6,1.082,Birpai,Taree,10 Albert Street Taree 2430,Greater Taree,10,Albert Street,taree public school,,3167.0,49554.0,taree public school,Albert St,Taree ,2430.0,-31.910904,152.462158
5064414,Tinonee Public School,Complex / Group,Education,1,6,0.44,Birpai,Tinonee,Hutchinson Street Tinonee 2430,Greater Taree,,Hutchinson Street,tinonee public school,,3219.0,49556.0,tinonee public school,2 Manchester St,TINONEE,2430.0,-31.932855,152.413577
5064415,Wingham Brush Public School,Complex / Group,Education,1,6,2.5984,Birpai,Wingham,4 Isabella Street Wingham 2429,Greater Taree,4,Isabella Street,wingham brush public school,,4575.0,54953.0,wingham brush public school,Isabella Street,WINGHAM,2429.0,-31.87024,152.376982
5064416,Beelbangera Public School - Buildings B00A and B00B,Built,,1,5,3.068,Wiradjuri,Beelbangera,505 Rankins Springs Road Beelbangera 2680,Griffith,505,Rankins Springs Road,beelbangera public school,Buildings B00A and B00B,1167.0,50539.0,beelbangera public school,Rankins Springs Rd,Beelbangera ,2680.0,-34.252836,146.101067
5064417,Griffith High School - Building B00A,Built,,1,5,8.388,Wiradjuri,Griffith,88 Coolah Street Griffith 2680,Griffith,88,Coolah Street,griffith high school,Building B00A,,,,,,,,
5064418,Ben Lomond Public School - Building B00A and B00E and Significant Trees,Built,,1,5,0.804,Ngiyampaa,Ben Lomond,Inn Road Ben Lomond 2365,Guyra,,Inn Road,ben lomond public school,Building B00A and B00E and Significant Trees,1196.0,49414.0,ben lomond public school,Inn Rd,Ben Lomond ,2365.0,-30.017024,151.661287
5064419,Black Mountain Public School - Buildings B00A and B00F,Built,,1,5,0.8094,Gamilaroi,Black Mountain,815 Black Mountains Road Black Mountain 2365,Guyra,815,Black Mountains Road,black mountain public school,Buildings B00A and B00F,1249.0,49415.0,black mountain public school,815 Black Mountain Rd,Black Mountain ,2365.0,-30.308489,151.657688
5064420,"Tingha Public School - Buildings B00A-B00C, B00E, B00H, B00I, B00K and Residence",Built,,1,5,2.691,Gamilaroi,Tingha,52-60 Ruby Street Tingha 2369,Guyra,52-60,Ruby Street,tingha public school,"Buildings B00A-B00C, B00E, B00H, B00I, B00K and Residence",3218.0,49418.0,tingha public school,54 Ruby St,Tingha ,2369.0,-29.959145,151.213606
5065999,Warialda Public School - Buildings B00A-B00E,Built,,1,5,2.27563,Gamilaroi,Warialda,27-35 Hope Street Warialda 2402,Gwydir,27-35,Hope Street,warialda public school,Buildings B00A-B00E,3382.0,49505.0,warialda public school,Hope St,Warialda ,2402.0,-29.541831,150.573638
5064421,Jugiong Public School - Buildings B00A and B00E,Built,,1,5,1.089,Ngunawal,Jugiong,Stapylton Street Jugiong 2726,Harden,,Stapylton Street,jugiong public school,Buildings B00A and B00E,2245.0,50663.0,jugiong public school,Flyde St,Jugiong,2726.0,-34.820203,148.335447
5064422,"Murrumburrah Public School - Buildings B00A, B00B and B00D",Built,,1,5,4.6608,Ngunawal,Murrumburrah,Albury Street Murrumburrah 2587,Harden,,Albury Street,murrumburrah public school,"Buildings B00A, B00B and B00D",2685.0,50286.0,murrumburrah public school,Albury Street,MURRUMBURRAH,2587.0,-34.550826,148.359862
5064423,Wombat Public School - Building B00C and Well,Built,,1,5,0.3616,Ngunawal,Wombat,46 Rose Street Wombat 2587,Harden,46,Rose Street,wombat public school,Building B00C and Well,3482.0,50287.0,wombat public school,Rose St,Wombat ,2587.0,-34.426627,148.245202
5064424,Kurrajong North Public School - Building B00A,Built,,1,5,1.2242,Dharug,Kurrajong Heights,1 Stone Terrace Kurrajong Heights 2758,Hawkesbury,1,Stone Terrace,kurrajong north public school,Building B00A,2344.0,50766.0,kurrajong north public school,Stone Terrace,KURRAJONG HILLS,2758.0,-33.541815,150.639446
5064425,Pitt Town Public School - Buildings B00A and B00D,Built,,1,5,1.616,Dharug,Pitt Town,17 Buckingham Street Pitt Town 2756,Hawkesbury,17,Buckingham Street,pitt town public school,Buildings B00A and B00D,2884.0,50749.0,pitt town public school,Buckingham St,Pitt Town ,2756.0,-33.583887,150.859638
5064427,Richmond Public School - Buildings B00A and B00D and Period Gates,Built,,1,5,1.037,Dharug,Richmond,115 Windsor Street Richmond 2753,Hawkesbury,115,Windsor Street,richmond public school,Buildings B00A and B00D and Period Gates,3999.0,50732.0,richmond public school,115 WINDSOR STREET,RICHMOND,2753.0,-33.598937,150.757514
5064428,"Windsor Public School - Buildings B00A, B00B and B00D-B00G",Built,,1,5,1.0234,Dharug,Windsor,2 Dight Street Windsor 2756,Hawkesbury,2,Dight Street,windsor public school,"Buildings B00A, B00B and B00D-B00G",3459.0,50755.0,windsor public school,Dight St,Windsor ,2756.0,-33.610366,150.816413
5064429,Longneck Lagoon Environmental Education Centre,Landscape,,3,6,,Dharug,Scheyville,113 Scheyville Road Scheyville 2756,Hawkesbury,113,Scheyville Road,longneck lagoon environmental education centre,,5690.0,64085.0,longneck lagoon environmental education centre,Whitmore Rd,Maraylya ,2765.0,-33.576219,150.892806
5066542,Richmond High School - Building B008,Built,,0,6,10.0071,Eora,Richmond,140 Lennox Street Richmond 2753,Hawkesbury,140,Lennox Street,richmond high school,Building B008,8178.0,50730.0,richmond high school,Lennox St,Richmond ,2753.0,-33.600535,150.746715
5064430,Parramatta West Public School - Building B00F,Built,,1,5,1.4061,Eora,Parramatta,Railway Street Parramatta 2150,Holroyd,,Railway Street,parramatta west public school,Building B00F,2843.0,47846.0,parramatta west public school,Auburn & Young Sts,Parramatta ,2150.0,-33.824472,150.990968
5064431,Ringrose Public School - Significant Trees,Built,,1,5,3.144,Eora,Greystanes,18-36 Ringrose Avenue Greystanes 2145,Holroyd,18-36,Ringrose Avenue,ringrose public school,Significant Trees,4312.0,47811.0,ringrose public school,Ringrose Ave,Greystanes ,2145.0,-33.820181,150.959399
5064432,Guildford Public School - Building B00E,Built,,1,5,2.35124,Eora,Guildford,1A Apia Street Guildford 2161,Holroyd,1A,Apia Street,guildford public school,Building B00E,2093.0,54952.0,guildford public school,Apia St,Guildford ,2161.0,-33.855821,150.981983
5064434,"Merrylands Public School - Buildings B00A, B00C, B00D, B00G, B00I and B00J",Built,,1,5,1.66609,Eora,Merrylands,68 Fowler Road Merrylands 2160,Holroyd,68,Fowler Road,merrylands public school,"Buildings B00A, B00C, B00D, B00G, B00I and B00J",2531.0,57451.0,merrylands public school,Fowler Rd,Merrylands ,2160.0,-33.840516,150.976047
5064435,Merrylands East Public School - Building B00A,Built,,1,5,0.836,Eora,Merrylands,7 Myee Street Merrylands 2160,Holroyd,7,Myee Street,merrylands east public school,Building B00A,5126.0,48140.0,merrylands east public school,Myee St,Merrylands ,2160.0,-33.841954,150.98929
5064436,"Westmead Public School - Buildings B00A, B00F and B00I",Built,,1,5,2.821,Eora,Westmead,150 Hawkesbury Road Westmead 2145,Holroyd,150,Hawkesbury Road,westmead public school,"Buildings B00A, B00F and B00I",3883.0,47814.0,westmead public school,Hawkesbury Rd,Westmead,2145.0,-33.810171,150.985291
5064437,Arcadia Public School - Building B00A,Built,,1,5,2.3199,Guringai,Arcadia,140 Arcadia Road Arcadia 2159,Hornsby,140,Arcadia Road,arcadia public school,Building B00A,1048.0,57392.0,arcadia public school,140 Arcadia Road,ARCADIA,2159.0,-33.623487,151.051031
5064438,Beecroft Public School - Building B00A,Built,,1,5,1.83792,Guringai,Beecroft,90-96 Beecroft Road Beecroft 2119,Hornsby,90-96,Beecroft Road,beecroft public school,Building B00A,1166.0,47758.0,beecroft public school,98 Beecroft Rd,Beecroft ,2119.0,-33.752085,151.06462
5064439,"Brooklyn Public School - Building B00A,  Landscape and Significant Trees",Built,,1,5,1.37379,Guringai,Brooklyn,106 Brooklyn Road Brooklyn 2083,Hornsby,106,Brooklyn Road,brooklyn public school,"Building B00A,  Landscape and Significant Trees",1377.0,48694.0,brooklyn public school,106 Brooklyn Rd,Brooklyn ,2083.0,-33.548414,151.214992
5064440,Epping West Public School - Building B00A,Built,,1,5,2.9666,Guringai,Epping,96-104 Carlingford Road Epping,Hornsby,96-104,Carlingford Road,epping west public school,Building B00A,1851.0,47769.0,epping west public school,96 Carlingford Rd,EPPING,2121.0,-33.772789,151.068048
5064442,Epping Public School - Building B00A,Built,,1,5,1.8962,Guringai,Epping,27-33 Pembroke Street Epping 2121,Hornsby,27-33,Pembroke Street,epping public school,Building B00A,1850.0,44925.0,epping public school,2-16 Norfolk Road,EPPING,2121.0,-33.770727,151.087878
5064443,Galston Public School - Buildings B00A and B00J and Grounds,Built,,1,5,1.881,Guringai,Galston,45B Arcadia Road Galston 2159,Hornsby,45B,Arcadia Road,galston public school,Buildings B00A and B00J and Grounds,1952.0,48139.0,galston public school,School Rd,Galston ,2159.0,-33.648197,151.04517
5064444,Galston High School - Building B00A and Item,Built,,1,5,10.48,Guringai,Galston,403 Galston Road Galston 2159,Hornsby,403,Galston Road,galston high school,Building B00A and Item,8481.0,48138.0,galston high school,403 Galston Rd,Galston ,2159.0,-33.660931,151.042348
5064445,"Hornsby Girls High School - Buildings B00A, B00D, B00E and Period Fence",Built,,1,5,2.36299,Guringai,Hornsby,12 Edgeworth David Avenue Hornsby 2077,Hornsby,12,Edgeworth David Avenue,hornsby girls high school,"Buildings B00A, B00D, B00E and Period Fence",8120.0,47669.0,hornsby girls high school,Edgeworth David Ave,Hornsby ,2077.0,-33.706627,151.101083
5064446,Mount Colah Public School - Grounds,Landscape,,1,5,3.084,Guringai,Mount Colah,19-21 Telopea Stree Mount Colah 2079,Hornsby,19-21,Telopea Stree,mount colah public school,Grounds,3885.0,47674.0,mount colah public school,Telopea St,Mount Colah ,2079.0,-33.672947,151.115695
5064447,Mount Kuring-gai Public School - Grounds,Landscape,,1,5,0.92669,Guringai,Mount Kuring-Gai,5-9 King Street Mount Kuring-Gai 2080,Hornsby,5-Sep,King Street,mount kuring-gai public school,Grounds,4049.0,47675.0,mount kuring-gai public school,Leeming St,Mount Kuring-gai ,2080.0,-33.657474,151.135604
5064449,Pennant Hills High School - Grounds,Landscape,,1,5,10.2822,Guringai,Pennant Hills,90 Boundary Road Pennant Hills 2120,Hornsby,90,Boundary Road,pennant hills high school,Grounds,8438.0,47762.0,pennant hills high school,Laurence St,Pennant Hills ,2120.0,-33.733692,151.061087
5064450,Thornleigh West Public School - Grounds,Landscape,,1,5,2.862,Guringai,Thornleigh,18 Giblett Avenue Thornleigh 2120,Hornsby,18,Giblett Avenue,thornleigh west public school,Grounds,4276.0,47766.0,thornleigh west public school,Giblett Ave,Thornleigh ,2120.0,-33.723864,151.072163
5064451,Waitara Public School - Building B00A and Grounds,Landscape,,1,5,1.9558,Guringai,Wahroonga,48-58 Myra Street Wahroonga 2076,Hornsby,48-58,Myra Street,waitara public school,Building B00A and Grounds,3334.0,47668.0,waitara public school,64-68 Edgeworth David Avenue,WAHROONGA,2076.0,-33.708119,151.111586
5064452,Cheltenham Girls High School,Complex / Group,Education,1,6,5.7238,Guringai,Cheltenham,161-175 Beecroft Road Cheltenham 2119,Hornsby,161-175,Beecroft Road,cheltenham girls high school,,8208.0,47759.0,cheltenham girls high school,Beecroft Rd & The Promenade,Beecroft ,2119.0,-33.75627,151.074096
5064453,Beecroft Public School,Complex / Group,Education,1,6,1.83792,Guringai,Beecroft,90-96 Beecroft Road Beecroft 2119,Hornsby,90-96,Beecroft Road,beecroft public school,,1166.0,47758.0,beecroft public school,98 Beecroft Rd,Beecroft ,2119.0,-33.752085,151.06462
5064454,Waitara Public School,Complex / Group,Education,1,6,1.9558,Guringai,Wahroonga,48-58 Myra Street Wahroonga 2076,Hornsby,48-58,Myra Street,waitara public school,,3334.0,47668.0,waitara public school,64-68 Edgeworth David Avenue,WAHROONGA,2076.0,-33.708119,151.111586
5064455,Epping Public School,Complex / Group,Education,1,6,1.6404,Guringai,Epping,27-33 Pembroke Street Epping 2121,Hornsby,27-33,Pembroke Street,epping public school,,1850.0,44925.0,epping public school,2-16 Norfolk Road,EPPING,2121.0,-33.770727,151.087878
5064456,Hunters Hill Public School - Building B00A,Built,,1,5,1.0176,Eora,Hunters Hill,17 Alexandra Street Hunters Hill 2110,Hunters Hill,17,Alexandra Street,hunters hill public school,Building B00A,2189.0,47728.0,hunters hill public school,17 Alexandra St,Hunters Hill ,2110.0,-33.835121,151.151254
5064457,Hunters Hill Public School - Period Walls,Built,,1,5,,Eora,Hunters Hill,17 Alexandra Street Hunters Hill 2110,Hunters Hill,17,Alexandra Street,hunters hill public school,Period Walls,2189.0,47728.0,hunters hill public school,17 Alexandra St,Hunters Hill ,2110.0,-33.835121,151.151254
5064458,Hunters Hill Public School - Building B00G,Built,,1,5,0.1366,Eora,Hunters Hill,17 Alexandra Street Hunters Hill 2110,Hunters Hill,17,Alexandra Street,hunters hill public school,Building B00G,2189.0,47728.0,hunters hill public school,17 Alexandra St,Hunters Hill ,2110.0,-33.835121,151.151254
5064459,Hunters Hill Public School,Complex / Group,Education,1,6,1.0176,Eora,Hunters Hill,17 Alexandra Street Hunters Hill 2110,Hunters Hill,17,Alexandra Street,hunters hill public school,,2189.0,47728.0,hunters hill public school,17 Alexandra St,Hunters Hill ,2110.0,-33.835121,151.151254
5064460,Hunters Hill High School,Complex / Group,Education,1,6,6.569,Eora,Hunters Hill,Reiby Road Hunters Hill 2110,Hunters Hill,,Reiby Road,hunters hill high school,,8207.0,47727.0,hunters hill high school,Reiby Rd,Hunters Hill ,2110.0,-33.832696,151.148509
5064461,Hunters Hill Public School,Complex / Group,Education,1,6,1.0176,Eora,Hunters Hill,17 Alexandra Street Hunters Hill 2110,Hunters Hill,17,Alexandra Street,hunters hill public school,,2189.0,47728.0,hunters hill public school,17 Alexandra St,Hunters Hill ,2110.0,-33.835121,151.151254
5064462,Hurstville Public School - Buildings B00E-B00I,Built,,1,5,2.458,Eora,Hurstville,80 Forest Road Hurstville 2220,Hurstville,80,Forest Road,hurstville public school,Buildings B00E-B00I,2197.0,44405.0,hurstville public school,50 Forest Road,HURSTVILLE,2220.0,-33.964695,151.110728
5064463,Peakhurst Public School - Building B00A and Significant Trees,Built,,1,5,1.26,Eora,Peakhurst,65A Bonds Road Peakhurst 2210,Hurstville,65A,Bonds Road,peakhurst public school,Building B00A and Significant Trees,2849.0,48607.0,peakhurst public school,Bonds Rd,PEAKHURST,2210.0,-33.955402,151.062306
5064464,Penshurst Public School - Building B00A,Built,,1,5,0.3492,Eora,Penshurst,510 Forest Road Penshurst 2222,Hurstville,510,Forest Road,penshurst public school,Building B00A,2861.0,48137.0,penshurst public school,Arcadia St,Penshurst ,2222.0,-33.962636,151.087702
5064465,Georges River College - Hurstville Boys Campus - Buildings B00A and B00E,Built,,1,5,3.875,Eora,Hurstville,Kenwyn Street Hurstville 2220,Hurstville,,Kenwyn Street,georges river college,Hurstville Boys Campus,,,,,,,,
5064466,Georges River College - Penshurst Girls Campus - Buildings B00A-B00E,Built,,1,5,1.4676,Eora,Penshurst,51 Penshurst Street Penshurst 2222,Hurstville,51,Penshurst Street,georges river college,Penshurst Girls Campus,,,,,,,,
5064467,Gilgai School - Buildings B00A and B00B,Built,,1,5,0.8094,Gamilaroi,Gilgai,28 Schwenkes Lane Gilgai 2360,Inverell,28,Schwenkes Lane,gilgai school,Buildings B00A and B00B,,,,,,,,
5064468,Inverell High School - Building B00A,Built,,1,5,2.211,Gamilaroi,Inverell,70 Brae Street Inverell 2360,Inverell,70,Brae Street,inverell high school,Building B00A,8122.0,56224.0,inverell high school,Brae St,Inverell ,2360.0,-29.765729,151.110782
5064469,Inverell Public School - Buildings B00B and B00H,Built,,1,5,0.8094,Gamilaroi,Inverell,22-30 Wood Street Inverell 2360,Inverell,22-30,Wood Street,inverell public school,Buildings B00B and B00H,2209.0,49407.0,inverell public school,Henderson St,Inverell ,2360.0,-29.773135,151.123016
5064470,Inverell Public School - Building B00I,Built,,1,5,0.8094,Gamilaroi,Inverell,22-30 Wood Street Inverell 2360,Inverell,22-30,Wood Street,inverell public school,Building B00I,2209.0,49407.0,inverell public school,Henderson St,Inverell ,2360.0,-29.773135,151.123016
5064471,Ashford Central School,Complex / Group,Education,1,6,0.4047,Gamilaroi,Ashford,51 Martyn Street Ashford 2361,Inverell,51,Martyn Street,ashford central school,,1066.0,49412.0,ashford central school,Albury St,Ashford ,2361.0,-29.321262,151.094638
5064472,Jerilderie Public School - Buildings B00A and B00B,Built,,1,5,1.38358,Wiradjuri,Jerilderie,27-33 Bolton Street Jerilderie 2716,Jerilderie,27-33,Bolton Street,jerilderie public school,Buildings B00A and B00B,2226.0,50641.0,jerilderie public school,31 Bolton St,Jerilderie ,2716.0,-35.354598,145.728865
5064473,Junee Public School,Complex / Group,Education,1,6,2.46977,Wiradjuri,Junee,116 Lorne Street Junee 2663,Junee,116,Lorne Street,junee public school,,2247.0,50518.0,junee public school,116 Lorne St,Junee,2663.0,-34.873488,147.584901
5064474,East Kempsey Public School - Buildings B00E and B00G,Built,,1,5,1.2028,Thungguti,East Kempsey,1 Innes Street East Kempsey 2440,Kempsey,1,Innes Street,east kempsey public school,Buildings B00E and B00G,,,,,,,,
5064475,"Frederickton Public School - Buildings B001, B003 and B005",Built,,1,5,1.6673,Thungguti,Frederickton,109 Great North Road Frederickton 2440,Kempsey,109,Great North Road,frederickton public school,"Buildings B001, B003 and B005",1943.0,49616.0,frederickton public school,Great North Rd,Frederickton ,2440.0,-31.033583,152.879353
5064476,"Gladstone Public School - Buildings B00A, B00B and B00E and Bell",Built,,1,5,0.33134,Thungguti,Gladstone,13 Kinchela Street Gladstone 2440,Kempsey,13,Kinchela Street,gladstone public school,"Buildings B00A, B00B and B00E and Bell",1991.0,49618.0,gladstone public school,13 Kinchela St,Gladstone ,2440.0,-31.026485,152.946508
5064477,Millbank Public  School - Building B00A and Memorial Gates,Built,,1,5,1.578,Thungguti,Millbank,506 Hickeys Creek Road Millbank 2440,Kempsey,506,Hickeys Creek Road,millbank public  school,Building B00A and Memorial Gates,,,,,,,,
5064478,Millbank Public  School - Building B00E,Built,,1,5,1.578,Thungguti,Millbank,506 Hickeys Creek Road Millbank 2440,Kempsey,506,Hickeys Creek Road,millbank public  school,Building B00E,,,,,,,,
5064479,Kempsey High School - Buildings B00B and B00G,Built,,1,5,5.417,Thungguti,West Kempsey,Broughton Street West Kempsey 2440,Kempsey,,Broughton Street,kempsey high school,Buildings B00B and B00G,8123.0,46364.0,kempsey high school,Broughton St,Kempsey ,2440.0,-31.06806,152.824202
5064480,Willawarrin Public School - Buildings B00B and B00C,Built,,1,5,1.366,Thungguti,Willawarrin,85-91 Armidale Road Willawarrin 2440,Kempsey,85-91,Armidale Road,willawarrin public school,Buildings B00B and B00C,3445.0,49629.0,willawarrin public school,85-91 Main Street,Willawarrin,2440.0,-30.925714,152.625518
5064481,Bellbrook Public School,Complex / Group,Education,1,6,0.597,Thungguti,Bellbrook,32 Main Street Bellbrook 2440,Kempsey,32,Main Street,bellbrook public school,,1178.0,49608.0,bellbrook public school,Main St,Bellbrook,2440.0,-30.819094,152.508698
5066000,Gladstone Public School,Complex / Group,Education,1,6,0.33134,Thungguti,Gladstone,13 Kinchela Street Gladstone 2440,Kempsey,13,Kinchela Street,gladstone public school,,1991.0,49618.0,gladstone public school,13 Kinchela St,Gladstone ,2440.0,-31.026485,152.946508
